District,Local Government,Network,Investment ID,Investment Name, 2024-25 to 2027-28 total budget ($'000) ,Committed total budget ($'000),Australian Government contribution ($’000),Queensland Government contribution ($’000),Local Government/Other Contribution ($’000),Estimated expenditure to 30 June 2024 ($’000),2024-25 ($’000), 2025-26 ($’000),2025-26 to 2026-27 ($'000),2026-27 to 2027-28 ($'000),2026-27 ($’000),2027-28 ($’000),Beyond ($’000),Endnotes,Web Link,Map,Midpoint Latitude,Midpoint Longitude
South Coast,Gold Coast City,National,2352560,"Pacific Motorway, Exit 45 (North) Ormeau, business case",1500000,1500000,750000,750000,0,0,0,750000,750000,750000,750000,0,0,,,1,-27.807015,153.265602
South Coast,Gold Coast City,National,1176064,"Pacific Motorway, Exit 49, upgrade interchange",57001084,140767901,55231500,85231500,304901,83766817,27001084,30000000,0,0,0,0,0,Funding contributions subject to further consideration and negotiation with the Australian Government.,https://www.tmr.qld.gov.au/projects/pacific-motorway-exit-49-upgrade-interchange,1,-27.820765,153.2897
South Coast,Gold Coast City,National,852582,"Pacific Motorway, Varsity Lakes (Exit 85) to Tugun (Exit 95) upgrade",439200792,1500000000,750000000,750000000,0,1044616708,165000000,120000000,154200792,154200792,114884254,39316538,16182500,,https://www.tmr.qld.gov.au/projects/pacific-motorway-m1-varsity-lakes-to-tugun-upgrade,1,-28.114216,153.441401
South Coast,Gold Coast City,State,2754279,"Beaudesert - Nerang Road, 2022 Disaster Recovery Funding Arrangements reconstruction works",1807058,2971638,2228729,742909,0,1164580,1807058,0,0,0,0,0,0,Funding administered by the Queensland Reconstruction Authority.,,1,-27.974628,153.254948
South Coast,Gold Coast City,State,3020360,"Beaudesert - Nerang Road, Billabirra Crescent to Oak Street, construct shared paths",800000,1500000,750000,750000,0,700000,800000,0,0,0,0,0,0,Australian Government Road Safety Program,,1,-27.99355,153.32442
South Coast,Gold Coast City,State,2769345,"Beechmont Road, 2022 Disaster Recovery Funding Arrangements reconstruction works",2748134,5496268,4122202,1374066,0,2748134,2748134,0,0,0,0,0,0,Funding administered by the Queensland Reconstruction Authority.,,1,-28.058829,153.240852
South Coast,Gold Coast City,State,3109727,"Beechmont Road, 2023 Disaster Recovery Funding Arrangements reconstruction works",4736675,4736675,3552506,1184169,0,0,4004351,732324,0,0,0,0,0,Funding administered by the Queensland Reconstruction Authority.,,1,-28.024374,153.260239
South Coast,Gold Coast City,State,3055682,"Burleigh Connection Road and Varsity Lakes Train station, bus infrastructure upgrades",12943000,12993000,0,12993000,0,50000,649000,8643128,3650872,3650872,3650872,0,0,"The project has a business case, with scope, cost and timing subject to further project development and site investigations, and consideration.",,1,-28.098999,153.441996
South Coast,Gold Coast City,State,1776678,"Coomera Connector (Stage 1), Coomera to Nerang",1804681851,3026000000,1513000000,1513000000,0,821018149,650000000,650000000,504681851,504681851,229281851,275400000,400300000,,https://www.tmr.qld.gov.au/projects/coomera-connector-stage-1,1,-27.93201,153.33901
South Coast,Gold Coast City,State,2754277,"Currumbin Creek - Tomewin Road (Part A), 2022 Disaster Recovery Funding Arrangements reconstruction works",3437038,5872494,4404371,1468123,0,2435456,2385775,1051263,0,0,0,0,0,Funding administered by the Queensland Reconstruction Authority.,,1,-28.21052,153.405908
South Coast,Gold Coast City,State,2754282,"Currumbin Creek - Tomewin Road, 2022 Disaster Recovery Funding Arrangements betterment works",550374,1100749,550375,550374,0,550375,550374,0,0,0,0,0,0,Funding administered by the Queensland Reconstruction Authority.,,1,-28.21052,153.405908
South Coast,Gold Coast City,State,1776744,"Currumbin Creek Road and Bienvenue Drive, upgrade intersection",9012166,10000000,2000000,8000000,0,987834,3012166,4000000,2000000,2000000,2000000,0,0,"The project is in the post-business case stage, with cost and timing subject to confirmation following market engagement and consideration. Funding splits under negotiation.",https://www.tmr.qld.gov.au/projects/currumbin-creek-road-bienvenue-drive-intersection-upgrade,1,-28.153814,153.469755
South Coast,Gold Coast City,State,3048531,"Currumbin Creek Road and Stewart Road (Currumbin), improve intersection",1835000,1835000,0,1835000,0,0,200000,1335000,300000,300000,300000,0,0,,,1,-28.146403,153.471335
South Coast,Gold Coast City,State,2669652,"Currumbin Creek Road, 2022 Disaster Recovery Funding Arrangements reconstruction works",11000377,28058051,21043538,7014513,0,17057674,9671918,1328459,0,0,0,0,0,Funding administered by the Queensland Reconstruction Authority.,,1,-28.172258,153.432958
South Coast,Gold Coast City,State,1765284,"Gold Coast Highway (Broadbeach - Coolangatta), Currumbin Creek cycleway, planning",450000,2150000,0,2150000,0,1700000,450000,0,0,0,0,0,0,,,1,-28.129631,153.478558
South Coast,Gold Coast City,State,938148,"Gold Coast Light Rail (Stage 3), Broadbeach South to Burleigh Heads",553438000,1219000000,395600000,713300000,110100000,665036000,308167000,162103000,83168000,83168000,60427000,22741000,526000,This project is being delivered as a Public Private Partnership.,https://www.tmr.qld.gov.au/projects/gold-coast-light-rail,1,-28.065438,153.438945
South Coast,Gold Coast City,State,1748742,"Gold Coast Light Rail (Stage 4), Burleigh Heads to Coolangatta, planning",8400000,30000000,0,15000000,15000000,7270000,2000000,2800000,3600000,3600000,3600000,0,0,Gold Coast City Council contribution includes both financial and in-kind to a total $30 million planning.,https://www.tmr.qld.gov.au/projects/gold-coast-light-rail-stage-4,1,-28.138606,153.488128
South Coast,Gold Coast City,State,740727,"Gold Coast heavy rail extension, corridor planning",280000,1174162,0,1174162,0,894162,50000,180000,50000,50000,50000,0,0,,https://www.tmr.qld.gov.au/projects/gold-coast-heavy-rail-extension-varsity-lakes-to-gold-coast-airport,0,,
South Coast,Gold Coast City,State,3048432,"Hope Island Road (Oxley Drive) and Sunbird Avenue (Paradise Point), improve intersection",1261500,1261500,0,1261500,0,0,100000,961500,200000,200000,200000,0,0,,,1,-27.88461,153.3878
South Coast,Gold Coast City,State,3020381,"Hope Island Road, east of Monterey Keys Drive, install pedestrian signals",2400000,3000000,1500000,1500000,0,600000,2400000,0,0,0,0,0,0,Australian Government Road Safety Program,,1,-27.880651,153.3345
South Coast,Gold Coast City,State,1204182,"Labrador - Carrara Road (Gold Coast Highway to Napper Road), Central Street to Napper Road (Stage 1), construct cycleway",2745024,3879000,0,3879000,0,1133976,2745024,0,0,0,0,0,0,,https://www.tmr.qld.gov.au/projects/labrador-carrara-road-gold-coast-highway-to-napper-road-construct-cycleway,1,-27.943306,153.386462
South Coast,Gold Coast City,State,3048559,"Nerang - Broadbeach Road and Labrador - Carrara Road (Ross Street) intersection, upgrade pedestrian facilities",2116500,2116500,0,2116500,0,0,200000,1716500,200000,200000,200000,0,0,,,1,-27.993507,153.340336
South Coast,Gold Coast City,State,1119268,"Nerang - Broadbeach Road, Pacific Motorway to Lawrence Drive, business case",615260,1200000,0,1200000,0,584740,615260,0,0,0,0,0,0,,,1,-27.996257,153.350641
South Coast,Gold Coast City,State,2754278,"Nerang - Murwillumbah Road, 2022 Disaster Recovery Funding Arrangements reconstruction works",2432612,3860697,2895523,965174,0,1428085,2432612,0,0,0,0,0,0,Funding administered by the Queensland Reconstruction Authority.,,1,-28.091856,153.248316
South Coast,Gold Coast City,State,1390056,"Nerang - Murwillumbah Road, various locations, safety treatments",3196000,38118400,0,38118400,0,34922400,2804321,391679,0,0,0,0,0,High Risk Roads Initiative,https://www.tmr.qld.gov.au/projects/nerang-murwillumbah-road,1,-28.107635,153.244965
South Coast,Gold Coast City,State,2613343,"Nerang Connection Road (Ferry Street) and Nerang Street, improve intersection",673880,1982000,0,1982000,0,1308120,673880,0,0,0,0,0,0,Safer Roads Sooner Program,,1,-27.993568,153.339957
South Coast,Gold Coast City,State,2316082,"New Gold Coast Stations (Pimpama, Hope Island and Merrimac)",285365639,500000000,0,500000000,0,214634361,168347830,117017809,0,0,0,0,0,Includes an agreed contribution from Queensland Rail of $73 million.,https://www.crossriverrail.qld.gov.au/stations-routes/gold-coast-line/,1,-27.81628,153.29663
South Coast,Gold Coast City,State,B06695,"Queensland Train Manufacturing Program Enabling works, Ormeau",246060000,246900000,0,246900000,0,840000,50186000,79763000,116111000,116111000,116001000,110000,0,The Ormeau Mainline Connection Works and Ormeau Feeder Substation have been merged to form Queensland Train Manufacturing Program Enabling works,,1,-27.7605,153.2562
South Coast,Gold Coast City,State,792520,"Smith Street Connection, Olsen Avenue to Kumbari Avenue, construct cycleway",2342215,4500000,0,4500000,0,2157785,2342215,0,0,0,0,0,0,,,1,-27.963479,153.38865
South Coast,Gold Coast City,State,3020336,"Smith Street Connection, Village Boulevard to Olsen Avenue, construct pedestrian and cycleway facilities",12500000,13300000,6650000,6650000,0,800000,6250000,6250000,0,0,0,0,0,Australian Government Road Safety Program,,1,-27.965249,153.385684
South Coast,Gold Coast City,State,1882808,"Southport - Burleigh Road (Clear Island Waters - Burleigh Heads), planning",1400000,1500000,0,1500000,0,100000,600000,400000,400000,400000,400000,0,0,,,1,-28.075616,153.422059
South Coast,Gold Coast City,State,1192281,"Southport - Burleigh Road and Markeri Street, upgrade intersection",5000000,5000000,0,5000000,0,0,0,800000,4200000,4200000,0,4200000,0,,,1,-28.048419,153.407282
South Coast,Gold Coast City,State,3048461,"Southport - Burleigh Road and Slayter Avenue, improve intersection",1561000,1561000,0,1561000,0,0,150000,1111000,300000,300000,300000,0,0,,,1,-27.962632,153.408068
South Coast,Gold Coast City,State,3049063,"Southport - Nerang Road and Ashmore Road (Ashmore), undertake safety improvements",2228000,2228000,0,2228000,0,0,200000,1800000,228000,228000,228000,0,0,Safer Roads Sooner Program,,1,-27.972569,153.411008
South Coast,Gold Coast City,State,3049817,"Southport - Nerang Road, Minnie Street and Anne Street (Southport), improve intersection",1577000,1577000,0,1577000,0,0,100000,1277000,200000,200000,200000,0,0,Safer Roads Sooner Program,,1,-27.972569,153.411008
South Coast,Gold Coast City,State,GC6,"Spit Masterplan (Southport), northern end of Main Beach, implement spit masterplan",13995000,26536000,0,26536000,0,12541000,4622000,1847000,7526000,7526000,260000,7266000,0,This capital value makes up part of the overall $60 million Spit Master Plan works program being implemented by Gold Coast Waterways Authority and other delivery entities.,,0,,
South Coast,Gold Coast City,State,2749642,"Staplyton - Jacobs Well Road, Christensen Road to Woolshed Road, planning",2000000,4000000,0,4000000,0,2000000,2000000,0,0,0,0,0,0,,,1,-27.728028,153.24107
South Coast,Gold Coast City,State,2612780,"Tallebudgera Connection Road (Currumbin Valley), improve safety",438500,1315500,0,1315500,0,877000,438500,0,0,0,0,0,0,Safer Roads Sooner Program,,1,-28.1646,153.43236
South Coast,Gold Coast City,State,2748794,"Tallebudgera Connection Road, 2022 Disaster Recovery Funding Arrangements reconstruction works",758120,1684712,1263534,421178,0,926592,758120,0,0,0,0,0,0,Funding administered by the Queensland Reconstruction Authority.,,1,-28.15336,153.428625
South Coast,Gold Coast City,State,2613366,"Tallebudgera Creek Road and Old Coach Road, improve intersection",1035000,1217000,0,1217000,0,182000,1035000,0,0,0,0,0,0,Safer Roads Sooner Program,,1,-28.12607,153.42584
South Coast,Gold Coast City,State,1780142,"Tamborine - Oxenford Road and Michigan Drive, upgrade intersection",5176536,7130000,0,7130000,0,1953464,3168707,2007829,0,0,0,0,0,,,1,-27.896366,153.296455
South Coast,Gold Coast City,State,2612605,"Tamborine - Oxenford Road, Reserve Road and Charlies Crossing Road North intersections, improve safety",4074650,5000000,0,5000000,0,925350,4074650,0,0,0,0,0,0,,,1,-27.90147,153.28837
South Coast,Gold Coast City,Local,2746292,"Currumbin Oceanway, Currumbin Vikings Surf Club to Tomewin Street, construct shared path",1400000,5600000,0,2800000,2800000,1400000,1400000,0,0,0,0,0,0,,,1,-28.133418,153.490127
South Coast,Gold Coast City,Local,1621576,"Gold Coast Light Rail (Stage 3), Broadbeach South to Burleigh Heads, construct cycleway",13772651,20000000,0,10000000,10000000,6227349,7604415,6168236,0,0,0,0,0,,https://www.tmr.qld.gov.au/projects/gold-coast-light-rail ,1,-28.057883,153.441262
South Coast,Gold Coast City,Local,1822175,"Kerkin Road (Jacobs Well), Pimpama River, upgrade bridge",400000,10060000,2000000,0,8060000,1600000,400000,0,0,0,0,0,0,Australian Government Safer Local Roads and Infrastructure Program,,1,-27.80283,153.33961
South Coast,Gold Coast City,Local,2979659,"Northern Gold Coast Bus Stops (Stage 3), construct bus stops",500000,2100000,0,1050000,1050000,550000,500000,0,0,0,0,0,0,,,0,,
South Coast,Logan City,National,1776871,"Mount Lindesay Highway (Brisbane - Beaudesert), Johanna Street to South Street (Jimboomba), duplication",80640661,95000000,63400000,31600000,0,14359339,12520127,47120534,21000000,21000000,21000000,0,0,"The project is in the post-business case stage, with cost and timing subject to confirmation following market engagement and consideration.",https://www.tmr.qld.gov.au/projects/mount-lindesay-highway-brisbane-beaudesert-johanna-street-to-south-street ,1,-27.827359,153.029053
South Coast,Logan City,National,2262546,"Mount Lindesay Highway (Brisbane - Beaudesert), Logan Motorway to Park Ridge Road, planning",1680000,1900000,0,1900000,0,220000,800000,600000,280000,280000,280000,0,0,,,1,-27.676555,153.030972
South Coast,Logan City,National,1118596,"Mount Lindesay Highway (Brisbane - Beaudesert), North Maclean to Jimboomba, business case",1300000,4100000,0,4100000,0,2800000,1300000,0,0,0,0,0,0,,https://www.tmr.qld.gov.au/projects/programs/mount-lindesay-highway-upgrade-program ,1,-27.797445,153.020955
South Coast,Logan City,National,2262951,"Mount Lindesay Highway (Brisbane - Beaudesert), South Street to Cedar Vale Road, planning",1000000,1000000,0,1000000,0,0,0,600000,400000,400000,400000,0,0,,,1,-27.852187,153.013727
South Coast,Logan City,National,3050251,"Pacific Highway (Pacific Motorway), Main Street overpass (Beenleigh), undertake safety improvements",1025500,1025500,0,1025500,0,0,76000,949500,0,0,0,0,0,Safer Roads Sooner Program,,1,-27.593895,153.111486
South Coast,Logan City,National,2543934,"Pacific Motorway, Daisy Hill to Logan Motorway, funding commitment",550855232,1000000000,500000000,500000000,0,84099800,31900200,60000000,458955032,458955032,69000000,389955032,365044968,"The project is in the pre-business case stage, with scope, cost and timing subject to further planning and business case development, and consideration.",https://www.tmr.qld.gov.au/projects/pacific-motorway-m1-daisy-hill-to-logan-motorway ,1,-27.647344,153.152969
South Coast,Logan City,National,852345,"Pacific Motorway, Eight Mile Plains to Daisy Hill upgrade",162953786,750000000,510000000,240000000,0,587046214,105000000,57953786,0,0,0,0,0,,https://www.tmr.qld.gov.au/projects/pacific-motorway-eight-mile-plains-to-daisy-hill-upgrade ,1,-27.623042,153.127692
South Coast,Logan City,State,1489367,"Beaudesert - Beenleigh Road, Milne Street to Tallagandra Road, duplicate to four lanes",17006421,20000000,6000000,14000000,0,2993579,7211933,8794488,1000000,1000000,1000000,0,0,"The project is in the post-business case stage, with cost and timing subject to confirmation following market engagement and consideration. Funding splits under negotiation.",https://www.tmr.qld.gov.au/projects/beaudesert-beenleigh-road-milne-street-to-tallagandra-road-duplicate-to-four-lanes ,1,-27.72449,153.193852
South Coast,Logan City,State,2748780,"Beenleigh - Redland Bay Road, California Creek Road to Mount Cotton Road, planning",2000000,4000000,0,4000000,0,2000000,2000000,0,0,0,0,0,0,,,1,-27.673509,153.218189
South Coast,Logan City,State,2822489,"Beenleigh - Redland Bay Road, Mount Cotton Road to Kruger Road (Carbrook), construct shared path",2902767,3802767,0,3802767,0,900000,2902767,0,0,0,0,0,0,,,1,-27.67183,153.206244
South Coast,Logan City,State,2352626,"Beenleigh Connection Road and City Road (Beenleigh), upgrade intersection",29321037,30000000,7000000,23000000,0,678963,3155890,10100147,16065000,16065000,8065000,8000000,0,"The project has a business case, with scope, cost and timing subject to further project development and site investigations, and consideration and negotiation with the Australian Government, including funding splits.",https://www.tmr.qld.gov.au/projects/beenleigh-connection-road-logan-street-city-road-intersection-upgrade ,1,-27.708681,153.203412
South Coast,Logan City,State,2681768,"Beenleigh Connection Road, Main Street, Martens Road, M1 Exit 35, improve roundabout, planning",2000000,2000000,0,2000000,0,0,500000,1000000,500000,500000,500000,0,0,,,1,-27.723921,153.21248
South Coast,Logan City,State,3048562,"Brisbane - Beenleigh Road (Kingston Road), Moss Street and Rudge Street (Woodridge), improve intersection",2833000,2833000,0,2833000,0,0,650000,1900000,283000,283000,283000,0,0,,,1,-27.593241,153.107687
South Coast,Logan City,State,2682739,"Brisbane - Beenleigh Road, Jacaranda Avenue to Chambers Flat Road, planning",1000000,1000000,0,1000000,0,0,0,0,1000000,1000000,500000,500000,0,,,1,-27.666289,153.120429
South Coast,Logan City,State,709455,"Brisbane - Beenleigh Road, Kingston Road and Compton Road, upgrade intersection",17617320,20000000,0,20000000,0,2382680,12287320,5330000,0,0,0,0,0,"The project is in the post-business case stage, with cost and timing subject to confirmation following market engagement and consideration.",,1,-27.619827,153.11559
South Coast,Logan City,State,2667114,"Brisbane - Beenleigh Road, improve safety",14269877,14813000,0,14813000,0,543123,6950000,7319877,0,0,0,0,0,High Risk Roads Initiative,,1,-27.647871,153.118212
South Coast,Logan City,State,1077383,"Camp Cable Road and Edelsten Road, improve intersection",2746525,3322500,0,3322500,0,575975,2196525,550000,0,0,0,0,0,Safer Roads Sooner Program,,1,-27.806242,153.061386
South Coast,Logan City,State,1490266,Loganlea train station relocation,144851576,173760000,89380000,84380000,0,28908424,29523843,64808014,50519719,50519719,45788442,4731277,0,"The project is in the post-business case stage, with cost and timing subject to confirmation following market engagement and consideration. It includes an agreed contribution from Queensland Rail.",https://www.tmr.qld.gov.au/projects/loganlea-station-relocation ,1,-27.671552,153.141401
South Coast,Logan City,State,2023478,"Loganlea train station, upgrade park 'n' ride",15750000,15750000,750000,15000000,0,0,8250000,7500000,0,0,0,0,0,"Project scope, cost and timing are subject to further planning and consideration.",https://www.tmr.qld.gov.au/projects/loganlea-station-relocation ,1,-27.671538,153.1414
South Coast,Logan City,State,3049926,"Mount Cotton Road and Wuduru Road (Beenleigh), improve intersection",1382000,1382000,0,1382000,0,0,100000,780000,502000,502000,502000,0,0,Safer Roads Sooner Program,,1,-27.659646,153.234107
South Coast,Logan City,State,2805497,"Park Ridge Connector (Southern Gateway), Logan Motorway to Granger Road, planning",700000,1000000,400000,400000,200000,100000,400000,300000,0,0,0,0,0,"Project scope, cost and timing are subject to further planning, consideration and negotiation with funding partners.",,0,,
South Coast,Logan City,State,1121969,"Park Ridge Connector, planning",200000,1500000,0,1500000,0,1300000,200000,0,0,0,0,0,0,,https://www.tmr.qld.gov.au/projects/park-ridge-connector ,1,-27.67086033,153.0737931
South Coast,Logan City,State,2613362,"Springwood Connection Road (Wembley Road) and Mayes Avenue intersection, improve intersection",1959000,2059000,0,2059000,0,100000,1500000,459000,0,0,0,0,0,Safer Roads Sooner Program,,1,-27.656298,153.065643
South Coast,Logan City,State,3020228,"Springwood Connection Road (Wembley Road), Woodridge Plaza entrance to Kingston Road, construct off road cycleway and signalised pedestrian crossings",5000000,5500000,2750000,2750000,0,500000,5000000,0,0,0,0,0,0,Australian Government Road Safety Program,,1,-27.642162,153.116841
South Coast,Logan City,State,3050176,"Waterford - Tamborine Road (Logan Village), undertake safety improvements",1002000,1002000,0,1002000,0,0,802000,200000,0,0,0,0,0,Safer Roads Sooner Program,,1,-27.75685,153.11517
South Coast,Logan City,State,1121203,"Waterford - Tamborine Road, Logan Village to Brisbane - Beenleigh Road, planning",200000,1300000,0,1300000,0,1100000,200000,0,0,0,0,0,0,,https://www.tmr.qld.gov.au/projects/waterford-tamborine-road-north-street-intersection ,1,-27.708366,153.137964
South Coast,Logan City,State,2688576,"Waterford - Tamborine Road, Stegemann Road to Logan Village, planning",2000000,2000000,0,2000000,0,0,500000,1000000,500000,500000,500000,0,0,,,1,-27.759933,153.110427
South Coast,Logan City,Local,2422631,"Bethania to Logan Village, construct rail trail",2834519,7086300,0,3543150,3543150,708631,2834519,0,0,0,0,0,0,,,1,-27.74157,153.130391
South Coast,Logan City,Local,1836313,"Chambers Flat Road and School Road (Logan Reserve), install traffic signals",550000,1100000,1100000,0,0,550000,550000,0,0,0,0,0,0,Australian Government Black Spot Program,,1,-27.71089,153.09343
South Coast,Logan City,Local,3049818,"Hein Road (Buccan), Section A, undertake safety improvements",1950000,1950000,1950000,0,0,0,100000,1850000,0,0,0,0,0,Australian Government Black Spot Program,,1,-27.741348,153.144229
South Coast,Logan City,Local,3049819,"Hein Road, The Aspect to Stegemann Road (Buccan), Section B, undertake safety improvements",1740000,1740000,1740000,0,0,0,100000,1640000,0,0,0,0,0,Australian Government Black Spot Program,,1,-27.747038,153.133833
South Coast,Logan City,Local,2654921,Loganlea Road Upgrade,10000000,79389250,24189250,0,55200000,14189250,10000000,0,0,0,0,0,0,,https://www.logan.qld.gov.au/loganlea-road-upgrade ,1,-27.662331,153.140419
South Coast,Logan City,Local,3049816,"Mundoolun Road (Mundoolun), undertake safety improvements",1480000,1480000,1480000,0,0,0,80000,1400000,0,0,0,0,0,Australian Government Black Spot Program,,1,-27.900543,153.090137
South Coast,Scenic Rim Regional,National,1452806,"Cunningham Highway (Ipswich - Warwick), 2020 Disaster Recovery Funding Arrangements reconstruction works",56956133,134400000,100800000,33600000,0,77443867,46392441,10563692,0,0,0,0,0,Funding administered by the Queensland Reconstruction Authority.,https://www.tmr.qld.gov.au/projects/cunningham-highway-ipswich-warwick-2020-disaster-recovery-funding-arrangements-reconstruction-works ,1,-28.059187,152.410853
South Coast,Scenic Rim Regional,National,2768996,"Cunningham Highway (Ipswich - Warwick), 2022 Disaster Recovery Funding Arrangements reconstruction works",1347992,1531306,1148480,382826,0,183314,1182741,165251,0,0,0,0,0,Funding administered by the Queensland Reconstruction Authority.,,1,-28.028308,152.483505
South Coast,Scenic Rim Regional,National,3020333,"Cunningham Highway (Ipswich - Warwick), undertake safety improvements",2500000,3000000,1500000,1500000,0,500000,2500000,0,0,0,0,0,0,Australian Government Road Safety Program,,1,-28.053604,152.432182
South Coast,Scenic Rim Regional,National,2731834,"Mount Lindesay Highway (Brisbane - Beaudesert), 2022 Disaster Recovery Funding Arrangements reconstruction works",1232717,1285062,963797,321265,0,52345,1125808,106909,0,0,0,0,0,Funding administered by the Queensland Reconstruction Authority.,,1,-27.967166,152.996213
South Coast,Scenic Rim Regional,State,2612588,"Beaudesert - Beenleigh Road and Mundoolun Connection Road intersection, improve safety",5101000,5608000,0,5608000,0,507000,2848000,2253000,0,0,0,0,0,,,1,-27.974262,153.05988
South Coast,Scenic Rim Regional,State,1836448,"Beaudesert - Boonah Road (Coulson), improve safety",2983438,3210951,0,3210951,0,227513,2383438,600000,0,0,0,0,0,Safer Roads Sooner Program,,1,-27.954653,152.733374
South Coast,Scenic Rim Regional,State,2748533,"Beaudesert - Boonah Road, 2022 Disaster Recovery Funding Arrangements reconstruction works",1007444,1187617,890713,296904,0,180173,899913,107531,0,0,0,0,0,Funding administered by the Queensland Reconstruction Authority.,,1,-27.942119,152.848852
South Coast,Scenic Rim Regional,State,2340521,"Beaudesert - Nerang Road (Biddaddaba), reshape and seal previously unsealed section",4900000,5200000,2600000,2600000,0,300000,4900000,0,0,0,0,0,0,Australian Government Road Safety Program,,1,-27.966149,153.136228
South Coast,Scenic Rim Regional,State,2804555,"Boonah - Rathdowney Road, 2022 Disaster Recovery Funding Arrangements reconstruction works",3392945,3999221,2999416,999805,0,606276,3030005,362940,0,0,0,0,0,Funding administered by the Queensland Reconstruction Authority.,,1,-28.194718,152.781832
South Coast,Scenic Rim Regional,State,2823837,"Ipswich - Boonah Road, 2022 Disaster Recovery Funding Arrangements reconstruction works",1267241,1494215,1120662,373553,0,226974,1132487,134754,0,0,0,0,0,Funding administered by the Queensland Reconstruction Authority.,,1,-27.907732,152.717224
South Coast,Scenic Rim Regional,State,3020384,"Mount Lindesay Highway (Beaudesert - Border) and Kooralbyn Road, undertake safety improvements",2200000,2500000,1250000,1250000,0,300000,2200000,0,0,0,0,0,0,Australian Government Road Safety Program,,1,-27.988176,152.995924
South Coast,Scenic Rim Regional,State,2767452,"Mount Lindesay Highway (Beaudesert - Border), 2022 Disaster Recovery Funding Arrangements betterment works",2835969,3563040,1781520,1781520,0,727071,1767057,1068912,0,0,0,0,0,Funding administered by the Queensland Reconstruction Authority.,,1,-28.2548,152.829402
South Coast,Scenic Rim Regional,State,2769110,"Mount Lindesay Highway (Beaudesert - Border), 2022 Disaster Recovery Funding Arrangements reconstruction works",6822369,8041901,6031426,2010475,0,1219532,6093279,729090,0,0,0,0,0,Funding administered by the Queensland Reconstruction Authority.,,1,-28.2548,152.829402
South Coast,Scenic Rim Regional,State,1836396,"Mount Lindesay Highway (Beaudesert - Border), Palen Creek, improve safety",2514803,2886467,0,2886467,0,371664,2514803,0,0,0,0,0,0,Safer Roads Sooner Program,,1,-28.278434,152.795574
South Coast,Scenic Rim Regional,State,2823838,"Rosewood - Warrill View Road, 2022 Disaster Recovery Funding Arrangements reconstruction works",1360521,1603870,1202903,400967,0,243349,1215349,145172,0,0,0,0,0,Funding administered by the Queensland Reconstruction Authority.,,1,-27.772661,152.536336
South Coast,Scenic Rim Regional,State,1836425,"Tamborine Mountain Road (Tamborine Mountain), improve safety",1420000,1900000,0,1900000,0,480000,1420000,0,0,0,0,0,0,Safer Roads Sooner Program,,1,-27.902355,153.171359
South Coast,Scenic Rim Regional,State,2802920,"Tamborine Mountain Road, 2022 Disaster Recovery Funding Arrangements reconstruction works",1650351,2448864,1836648,612216,0,798513,1310684,339667,0,0,0,0,0,Funding administered by the Queensland Reconstruction Authority.,,1,-27.928437,153.184519
South Coast,Scenic Rim Regional,State,2613679,"Tamborine Mountain Road, improve safety",977006,1179500,0,1179500,0,202494,977006,0,0,0,0,0,0,Safer Roads Sooner Program,,1,-27.901178,153.165813
South Coast,Scenic Rim Regional,Local,3006565,"Hinchcliffe Drive (Kooralbyn), replace bridge",5000000,8097400,5000000,0,3097400,0,2500000,2500000,0,0,0,0,0,Australian Government Safer Local Roads and Infrastructure Program,,1,-28.083106,152.83227
South Coast,Scenic Rim Regional,Local,3006396,"Kengoon Road (Kents Lagoon), replace bridge",2493032,3116290,2493032,0,623258,0,1246516,1246516,0,0,0,0,0,Australian Government Safer Local Roads and Infrastructure Program,,1,-27.881687,152.627916
South Coast,Scenic Rim Regional,Local,3006608,"Kerry Road (Kerry), realignment, strengthen and widen pavement",5000000,9601200,5000000,0,4601200,0,2500000,2500000,0,0,0,0,0,Australian Government Safer Local Roads and Infrastructure Program,,1,-28.17663,153.0408
South Coast,Various local governments,National,1118517,"Pacific Motorway, Logan Motorway to Nerang, planning",331399,1492223,700000,792223,0,1160824,331399,0,0,0,0,0,0,,,0,,
South Coast,Various local governments,State,1487103,"Salisbury to Beaudesert rail line, planning",16416346,20000000,10000000,10000000,0,3583654,800000,2820000,12796346,12796346,12796346,0,0,Australian Government Major Projects Business Case Fund,https://www.tmr.qld.gov.au/projects/salisbury-to-beaudesert-rail-business-case ,1,-27.553887,153.022738
South Coast,Other works,,,"Boating Infrastructure Program, various locations",9850000,0,0,9850000,0,0,2200000,2550000,5100000,5100000,2550000,2550000,0,,,0,,
South Coast,Other works,,,Construction Works,44665739,0,1385081,43090238,190420,0,24269650,19216743,1179346,1179346,0,1179346,0,,,0,,
South Coast,Other works,,,Corridor Acquisitions (Hardship),48000000,0,0,48000000,0,0,10000000,4000000,34000000,34000000,4000000,30000000,0,,,0,,
South Coast,Other works,,,Corridor Acquisitions (Non-hardship),0,0,0,0,0,0,0,0,0,0,0,0,0,,,0,,
South Coast,Other works,,,Corridor and Minor Safety Enhancements,31752600,0,1504684,30247916,0,0,17993579,8212706,5546315,5546315,2870057,2676258,0,,,0,,
South Coast,Other works,,,"Corridor, Roadway and Structures Management",4717919,0,0,4717919,0,0,1146589,1162647,2408683,2408683,1205819,1202864,0,,,0,,
South Coast,Other works,,,Local Government Transport Development,31854655,0,19153050,12701605,0,0,13699440,12195263,5959952,5959952,3248064,2711888,0,,,0,,
South Coast,Other works,,,Natural Disaster Operational,195706,0,146779,48927,0,0,195706,0,0,0,0,0,0,,,0,,
South Coast,Other works,,,Natural Disaster Rehabilitation and Replacement,135746123,0,101494602,34251521,0,0,16570485,69175638,50000000,50000000,50000000,0,0,,,0,,
South Coast,Other works,,,"Navigational Access and Safety Program, various locations, dredging navigation channels",3220000,0,0,3220000,0,0,1370000,150000,1700000,1700000,850000,850000,0,,,0,,
South Coast,Other works,,,Programmed Maintenance,95454046,0,4918135,90535911,0,0,22177459,22995522,50281065,50281065,23936193,26344872,0,,,0,,
South Coast,Other works,,,Rehabilitation,121556628,0,8223868,113332760,0,0,41619363,25571908,54365357,54365357,26135790,28229567,0,,,0,,
South Coast,Other works,,,Routine Maintenance,138806920,0,21518817,117288103,0,0,30811508,33728341,74267071,74267071,35587828,38679243,0,,,0,,
South Coast,Other works,,,Traffic Management Enhancements,10744144,0,840000,9904144,0,0,5505144,3611500,1627500,1627500,1627500,0,0,,,0,,
South Coast,Other works,,,Traffic Operations,25217229,0,6340629,18876600,0,0,18087064,3499924,3630241,3630241,3630241,0,0,,,0,,
South Coast,Other works,,,Transport Network Investments,2555000,0,750000,1805000,0,0,305000,2250000,0,0,0,0,0,,,0,,
South Coast,Other works,,,Transport Planning,10002239,0,542388,9459851,0,0,4194054,2833185,2975000,2975000,1775000,1200000,0,,,0,,
Metropolitan,Brisbane City,National,1510417,"Gateway Motorway, Bracken Ridge to Pine River upgrade",427446361,1000000000,800000000,200000000,0,40452613,55000000,65000000,307446361,307446361,110397400,197048961,532101026,"The project has a business case, with scope, cost and timing subject to further project development and site investigations, and consideration.",https://www.tmr.qld.gov.au/projects/gateway-motorway-bracken-ridge-to-pine-river-upgrade ,1,-27.308808,153.02989
Metropolitan,Brisbane City,National,1500732,"Port of Brisbane, planning",14880281,20000000,20000000,0,0,5119719,800000,500000,13580281,13580281,5660281,7920000,0,"Australian Government Major Projects Business Case Fund, recognising in-kind contribution from the Queensland Government.",,0,,
Metropolitan,Brisbane City,State,B05104,"Albion train station, Mawarra Street, upgrade station",15810224,16840000,0,16840000,0,1029776,1800606,4202618,9807000,9807000,9807000,0,0,,,1,-27.4293,153.0404
Metropolitan,Brisbane City,State,3188355,"Aspley bikeway, Zillmere Road to Cabbage Tree Creek bikeway, construct shared path",5000000,5000000,0,5000000,0,0,200000,1000000,3800000,3800000,3000000,800000,0,,,1,-27.356069,153.026671
Metropolitan,Brisbane City,State,B05362,"Banyo train station, St Vincents Road, upgrade station",30292819,65656002,0,65656002,0,35363183,30242819,50000,0,0,0,0,0,,,1,-27.3749,153.077309
Metropolitan,Brisbane City,State,2393196,"Bicentennial Bikeway, Kurilpa Bridge to Victoria Bridge, design active transport upgrades",2939308,3600000,0,3600000,0,660692,1629500,1309808,0,0,0,0,0,,https://www.tmr.qld.gov.au/projects/bicentennial-bikeway-kurilpa-bridge-to-queens-wharf-road-business-case ,1,-27.470384,153.020617
Metropolitan,Brisbane City,State,1815511,"Bowen Bridge Road to Exhibition Station, upgrade rail pedestrian connection",3928291,8000000,0,8000000,0,4071709,3928291,0,0,0,0,0,0,,https://crossriverrail.qld.gov.au/stations-routes/exhibition-station/ ,1,-27.451472,153.029628
Metropolitan,Brisbane City,State,B06465,Breakfast Creek Bridge Replacement,24187458,28000000,0,28000000,0,3812542,24187458,0,0,0,0,0,0,,,1,-27.4336,153.039721
Metropolitan,Brisbane City,State,B05733,"Breakfast Creek Bridge, realign track",15722314,48454963,0,48454963,0,32732649,9188180,6534134,0,0,0,0,0,This project is being delivered by Cross River Rail Delivery Authority.,,1,-27.4337,153.039785
Metropolitan,Brisbane City,State,8783,Brisbane Mesoscopic AIMSUN Model,500000,1421662,0,1421662,0,921662,125000,175000,200000,200000,100000,100000,0,,,0,,
Metropolitan,Brisbane City,State,2374644,"Brisbane Metro, South Bank Transport Study, planning",366667,1000000,333333,333334,333333,300000,366667,0,0,0,0,0,0,"Project scope, cost and timing are subject to further planning, consideration and negotiation with funding partners.",,0,,
Metropolitan,Brisbane City,State,2383186,"Brisbane Metro, Woolloongabba Station, funding commitment",204183000,450000000,150000000,150000000,150000000,56817000,4183000,5000000,195000000,195000000,15000000,180000000,39000000,"The project is in the pre-business case stage, with scope, cost and timing subject to further planning and business case development, and consideration and negotiation with the Australian Government and Brisbane City Council.",https://www.tmr.qld.gov.au/projects/brisbane-metro-woolloongabba-station ,1,-27.48691,153.032857
Metropolitan,Brisbane City,State,B05099,"Buranda train station, Arne Street (Woolloongabba), upgrade station",43498008,70078999,0,70078999,0,26580991,43448008,50000,0,0,0,0,0,,,1,-27.4966,153.04064
Metropolitan,Brisbane City,State,1976618,"Butterfield Street Layover, construct bus layover and facilities",9058597,10200000,0,10200000,0,1141403,9058597,0,0,0,0,0,0,,,1,-27.445254,153.027954
Metropolitan,Brisbane City,State,1582984,"Cannon Hill Shopping Centre, upgrade bus station",10825123,12405000,0,12405000,0,1579877,0,10825123,0,0,0,0,0,"The project is in the post-business case stage, with cost and timing subject to confirmation following market engagement and consideration.",https://www.tmr.qld.gov.au/projects/cannon-hill-shopping-centre-bus-facility-design-bus-station ,1,-27.470717,153.096395
Metropolitan,Brisbane City,State,669801,Centenary Bridge Upgrade,172056920,298500000,139250001,159249999,0,126443080,65000000,50000000,57056920,57056920,57056920,0,0,,https://www.tmr.qld.gov.au/projects/centenary-motorway-ellen-grove-toowong-centenary-bridge ,1,-27.527707,152.946927
Metropolitan,Brisbane City,State,2655724,"Centenary Motorway Upgrade, planning",2000000,10000000,10000000,0,0,8000000,2000000,0,0,0,0,0,0,,https://www.tmr.qld.gov.au/projects/centenary-motorway-planning-australian-government-funding-commitment ,1,-27.512136,152.957734
Metropolitan,Brisbane City,State,1058947,"Chermside Bus Layover, Gympie Road and Murphy Road intersection, construct bus facilities",11708219,17480000,0,17480000,0,5771781,7425000,4283219,0,0,0,0,0,,,1,-27.37903,153.029428
Metropolitan,Brisbane City,State,8799,"Chermside bus stop, construct southbound platform",11493448,16535846,0,14175847,2359999,5042398,7001868,4491580,0,0,0,0,0,,,1,-27.385702,153.031778
Metropolitan,Brisbane City,State,B05732,"Clapham Yard Stabling (Moorooka), construct stabling yard",327577044,532356250,0,532356250,0,204779206,123000000,204577044,0,0,0,0,0,This project is being delivered by Cross River Rail Delivery Authority.,,1,-27.5359,153.013655
Metropolitan,Brisbane City,State,B06622,Cross River Rail Tunnel Maintenance Plant,11949996,12049996,0,12049996,0,100000,3100000,4899996,3950000,3950000,3750000,200000,0,,,0,,
Metropolitan,Brisbane City,State,B04735,"European Train Control Systems Signalling Program:  Phase 1 (Pilot line, Tunnel, and Sector 1 to Moorooka)",629766578,1318322074,0,1318322074,0,688555496,272400000,216667967,140698611,140698611,93700000,46998611,0,"This is the same project as European Train Control Systems Level 2 but also includes new cyber security/Operational readiness scope, full integration with other Cross River Rail contract schedules to Moorooka, and addresses inflationary signalling costs. There is also a reallocation of $47m of funding from QR’s existing Network Efficiencies program.",,0,,
Metropolitan,Brisbane City,State,2275860,"Gympie Arterial Road (Kedron - Bald Hills), planning",9700000,10000000,5000000,5000000,0,300000,2250000,7450000,0,0,0,0,0,,,1,-27.331756,153.011721
Metropolitan,Brisbane City,State,2152631,"Gympie Arterial Road and Murphy Road intersection, Downfall Creek Bridge, planning",200000,1978134,0,1978134,0,1778134,200000,0,0,0,0,0,0,,,1,-27.379361,153.029297
Metropolitan,Brisbane City,State,2384603,"Gympie Arterial Road, Telegraph Road to Strathpine Road, improve drainage",14426409,15000000,0,15000000,0,573591,2026409,6200000,6200000,6200000,6200000,0,0,,,1,-27.328538,153.012392
Metropolitan,Brisbane City,State,3248877,"Gympie Road surface corridor transformation, business case",17000000,17000000,0,17000000,0,0,10000000,7000000,0,0,0,0,0,,,0,,
Metropolitan,Brisbane City,State,B06466,"Inner City Rail Corridor, upgrade signalling and interlocking planning",130221,1500000,0,1500000,0,1369779,130221,0,0,0,0,0,0,This project will undertake initial planning works for future funding consideration.,,1,-27.46464,153.01766
Metropolitan,Brisbane City,State,B05739,Inner City Signalling Upgrades,26579101,74738895,0,74738895,0,48159794,13530742,13048359,0,0,0,0,0,This project is being delivered by Cross River Rail Delivery Authority.,,1,-27.46464,153.01766
Metropolitan,Brisbane City,State,2311859,"Inner Northern Busway, Roma Street, improve bus station",4000000,12000000,0,12000000,0,8000000,2000000,2000000,0,0,0,0,0,,https://crossriverrail.qld.gov.au/precincts/roma-street-station-precinct/ ,1,-27.466181,153.020351
Metropolitan,Brisbane City,State,2369175,"Ipswich Motorway (Cunningham Arterial Road), Rocklea to Darra, remaining sections, planning",16200000,25000000,12500000,12500000,0,8800000,8000000,8200000,0,0,0,0,0,,,1,-27.566066,152.980683
Metropolitan,Brisbane City,State,B06065,"Lindum train station, Sibley Road, upgrade station",28606836,62381000,0,62381000,0,33774164,28109476,497360,0,0,0,0,0,,,1,-27.4424,153.144125
Metropolitan,Brisbane City,State,1160465,Linkfield Road Overpass upgrade,160035161,176000000,125500000,50500000,0,15964839,5821314,28104283,126109564,126109564,75109564,51000000,0,"The project is in the post-business case stage, with cost and timing subject to confirmation following market engagement and consideration.",https://www.tmr.qld.gov.au/projects/linkfield-road-overpass-upgrade ,1,-27.331257,153.010239
Metropolitan,Brisbane City,State,2422929,"Logan Sub-Arterial Road (Miles Platting Road) and Padstow Road, upgrade intersection, planning",800000,1250000,0,1250000,0,450000,800000,0,0,0,0,0,0,,,1,-27.559848,153.081186
Metropolitan,Brisbane City,State,1244447,"Manly Boat Harbour, master planning",219916,525000,0,525000,0,305084,219916,0,0,0,0,0,0,,,1,-27.456165,153.187006
Metropolitan,Brisbane City,State,B05735,"Mayne Yard Accessibility, upgrade vehicle and pedestrian access",44572669,173411184,0,173411184,0,128838515,28794046,15778623,0,0,0,0,0,This project is being delivered by Cross River Rail Delivery Authority.,,1,-27.4444,153.036231
Metropolitan,Brisbane City,State,B05740,Mayne Yard Relocations,10029486,27336751,0,27336751,0,17307265,5189993,4839493,0,0,0,0,0,This project is being delivered by Cross River Rail Delivery Authority.,,1,-27.4411,153.036649
Metropolitan,Brisbane City,State,3247455,"Moggill Sub-Arterial Road, Witton Road to the Western Freeway off ramp (Chapel Hill), active transport design and construction",10370000,10370000,0,10370000,0,0,2000000,7000000,1370000,1370000,1370000,0,0,,,0,,
Metropolitan,Brisbane City,State,B06066,"Morningside train station, Waminda Street, upgrade station",30009499,68025002,0,68025002,0,38015503,29734098,275401,0,0,0,0,0,,,1,-27.4709,153.069509
Metropolitan,Brisbane City,State,B06737,Roma Street surface station integration,24557000,35000000,0,35000000,0,10443000,24557000,0,0,0,0,0,0,This project is delivered by the Department of Transport and Main Roads.,,1,-27.4644,153.0194
Metropolitan,Brisbane City,State,1244277,"Samford Sub-Arterial Road (Samford Road) and Glen Holm Street, upgrade intersection",5400000,10000000,0,10000000,0,4600000,5400000,0,0,0,0,0,0,,https://www.tmr.qld.gov.au/projects/samford-sub-arterial-road-samford-road-and-glen-holm-street-upgrade-intersection ,1,-27.412148,152.971645
Metropolitan,Brisbane City,State,2292190,"Stafford Road and South Pine Road upgrade intersection, planning",823800,1200000,0,1200000,0,376200,823800,0,0,0,0,0,0,,https://www.tmr.qld.gov.au/projects/Stafford-Road-and-South-Pine-Road-Intersection-Upgrade-planning-study ,1,-27.406909,152.992778
Metropolitan,Brisbane City,State,B05734,Station Upgrades Fairfield to Salisbury,47290362,105354596,0,105354596,0,58064234,25679891,21610471,0,0,0,0,0,This project is being delivered by Cross River Rail Delivery Authority.,,0,,
Metropolitan,Brisbane City,State,1583698,"Upper Mount Gravatt Busway Station, accessibility upgrade",3500000,4469500,0,4469500,0,969500,0,3500000,0,0,0,0,0,"The project is in the post-business case stage, with cost and timing subject to confirmation following market engagement and consideration.",,1,-27.565546,153.083473
Metropolitan,Brisbane City,State,3181839,"Veloway 1 (V1) Cycleway, Birdwood Road cycle bridge and approaches, construction",36146330,36146330,0,36146330,0,0,3614633,21687798,10843899,10843899,10843899,0,0,"The project has a business case, with scope, cost and timing subject to further project development and site investigations, and consideration.",,1,-27.523263,153.054287
Metropolitan,Brisbane City,State,2635585,"Western Arterial Road (Toowong - Everton Park), Wardell Street Ramp and Pickering Street, improve safety",3160612,3586000,0,3586000,0,425388,3160612,0,0,0,0,0,0,Safer Roads Sooner Program,,1,-27.419268,152.991638
Metropolitan,Brisbane City,Local,2248719,"Beams Road (Carseldine and Fitzgibbon), upgrade rail level crossing",197402042,235000000,56240000,138760000,40000000,37597958,56236549,61040899,80124594,80124594,80124594,0,0,,https://www.tmr.qld.gov.au/projects/beams-road-carseldine-and-fitzgibbon-rail-level-crossing-funding-commitment ,1,-27.348697,153.029479
Metropolitan,Brisbane City,Local,1488479,"Boundary Road (Coopers Plains), upgrade rail level crossing, funding commitment",289448815,399000000,179500000,179500000,40000000,17895535,63084084,68450000,157914731,157914731,71570381,86344350,91655650,"The project has a business case, with scope, cost and timing subject to further project development and site investigations, and consideration.",https://www.tmr.qld.gov.au/projects/boundary-road-coopers-plains-rail-level-crossing-funding-commitment ,1,-27.570124,153.037454
Metropolitan,Brisbane City,Local,1677748,"Brisbane Metro, funding commitment",15000000,300000000,300000000,0,0,285000000,10000000,5000000,0,0,0,0,0,Funding commitment towards Brisbane City Council's Brisbane Metro project.,,0,,
Metropolitan,Brisbane City,Local,2605820,"Cavendish Road rail level crossing (Coorparoo), funding commitment",42000000,98500000,98500000,0,0,0,0,14000000,28000000,28000000,14000000,14000000,56500000,"Represents the balance of the $100 million, with $1.5 million matching the state funding to progress planning.",,1,-27.488938,153.055571
Metropolitan,Brisbane City,Local,2420128,"Coorparoo Level Crossing precinct, Cavendish Road and Stanley Street East, planning",3000000,3000000,1500000,1500000,0,0,200000,1400000,1400000,1400000,1400000,0,0,,,1,-27.491859,153.058616
Metropolitan,Brisbane City,Local,3088381,"Illaweena Street, Stretton State College, upgrade carpark",1800000,3600000,0,1800000,1800000,0,1800000,0,0,0,0,0,0,,,1,-27.639812,153.056384
Metropolitan,Brisbane City,Local,1213128,"Lindum rail level crossing, funding commitment",65000000,65000000,65000000,0,0,0,0,28410000,36590000,36590000,36590000,0,0,,https://www.tmr.qld.gov.au/projects/lindum-station-precinct-study ,1,-27.44243,153.14373
Metropolitan,Brisbane City,Local,2330976,"Lindum rail level crossing, upgrade signalisation, funding commitment",21250000,40000000,20000000,10000000,10000000,8750000,3600000,9325000,8325000,8325000,8325000,0,0,,https://www.tmr.qld.gov.au/projects/lindum-station-precinct-study ,1,-27.442466,153.143759
Metropolitan,Brisbane City,Local,1818528,"Montague Road, corridor planning",700000,1000000,0,1000000,0,300000,700000,0,0,0,0,0,0,,,1,-27.501125,153.046489
Metropolitan,Brisbane City,Local,2340520,Moorooka bus rail interchange upgrade,7600000,8000000,0,8000000,0,400000,4400000,3200000,0,0,0,0,0,,,1,-27.53583,153.014329
Metropolitan,Brisbane City,Local,2821602,"Moreton Bay Cycleway, Murarrie to Wynnum, planning",1300000,1500000,0,1500000,0,200000,400000,900000,0,0,0,0,0,,,0,,
Metropolitan,Brisbane City,Local,1818471,"Riverwalk (Kangaroo Point), Mowbray Park to Captain Burke Park, construct shared path, funding commitment",20750000,22500000,0,22500000,0,1750000,14112500,6637500,0,0,0,0,0,,,1,-27.480207,152.985196
Metropolitan,Brisbane City,Local,1818718,"South Brisbane bike network, funding commitment",9600000,9600000,0,9600000,0,0,5970000,3630000,0,0,0,0,0,,,0,,
Metropolitan,Ipswich City,National,1572882,Warrego Highway (Ipswich - Toowoomba) and Mount Crosby Road interchange,64812516,277000000,138500000,138500000,0,13687484,2728898,12083618,50000000,50000000,20000000,30000000,198500000,"The project has a business case, with scope, cost and timing subject to further project development and site investigations, and consideration.",https://www.tmr.qld.gov.au/projects/warrego-highway-ipswich-toowoomba-and-mount-crosby-road-interchange-detailed-design ,1,-27.574739,152.788701
Metropolitan,Ipswich City,National,3214366,"Warrego Highway (Ipswich - Toowoomba), Bremer River Bridge, strengthening",85000000,85000000,42500000,42500000,0,0,25000000,30000000,30000000,30000000,30000000,0,0,"The project is in the pre-business case stage, with scope, cost and timing subject to further planning and business case development, and consideration.",,1,-27.582805,152.814219
Metropolitan,Ipswich City,State,B06063,"Bundamba train station, Mining Street, upgrade station",19626986,53744999,0,53744999,0,34118013,19576986,50000,0,0,0,0,0,,,1,-27.6075,152.80472
Metropolitan,Ipswich City,State,2384566,"Centenary Motorway (Yamanto - Ellen Grove) and Springfield Greenbank Arterial Road exit ramp, upgrade intersection",2546361,6500000,0,6500000,0,3953639,2546361,0,0,0,0,0,0,,,1,-27.663631,152.740035
Metropolitan,Ipswich City,State,3040558,"Centenary Motorway (Yamanto - Ellen Grove), Ripley priority development area enabling works assessment, planning",400000,800000,0,800000,0,400000,400000,0,0,0,0,0,0,,,1,-27.687608,152.784039
Metropolitan,Ipswich City,State,3249110,"Centenary Motorway (Yamanto - Ellen Grove), active transport crossing, planning",1000000,1000000,0,1000000,0,0,750000,250000,0,0,0,0,0,,,1,-27.687864,152.802847
Metropolitan,Ipswich City,State,3031850,"Ipswich - Cunningham Highway Connection Road (East Street), Mansfield Place and Olga Street, undertake safety improvements",2187623,2233037,0,2233037,0,45414,382623,1805000,0,0,0,0,0,,,1,-27.595904,152.839462
Metropolitan,Ipswich City,State,2384694,"Ipswich - Rosewood Road (John Street), improve flood resilience, planning and design",2470000,3000000,0,3000000,0,530000,470000,2000000,0,0,0,0,0,Funding is for pre-construction activities only.,,1,-27.640526,152.592915
Metropolitan,Ipswich City,State,451025,"Ipswich to Springfield rail line extension, planning",497714,2500000,1000000,1000000,500000,2002286,497714,0,0,0,0,0,0,,,0,,
Metropolitan,Ipswich City,State,2604930,"Ipswich to Springfield rail line, business case",6750000,7500000,3375000,3375000,750000,0,100000,2000000,4650000,4650000,2141291,2508709,0,"Project scope, cost and timing are subject to further planning, consideration and negotiation with funding partners.",,0,,
Metropolitan,Ipswich City,State,2384648,"Riverview - Moggill Ferry Road, River Road to Brisbane River, improve drainage, pavement stabilisation and strengthening",9000000,10000000,0,10000000,0,1000000,9000000,0,0,0,0,0,0,,,1,-27.58975,152.833624
Metropolitan,Ipswich City,Local,2565094,"Hiddenvale Road (Calvert), replace bridge",1950881,4877202,3901761,0,975441,1950880,1950881,0,0,0,0,0,0,Australian Government Safer Local Roads and Infrastructure Program,,1,-27.676625,152.504136
Metropolitan,Ipswich City,Local,3026131,"Springfield Parkway, Springfield Greenbank Arterial to Topaz Road (Ipswich) (Stage 2), duplicate two to four lanes",1487966,30000000,0,1487966,28512034,0,0,743983,743983,743983,743983,0,0,,,1,-27.657522,152.911307
Metropolitan,Redland City,State,1764436,"Bayside and Redlands transport and mobility study, planning",50000,487818,0,487818,0,437818,50000,0,0,0,0,0,0,,,0,,
Metropolitan,Redland City,State,2643559,"Capalaba - Cleveland Road (Finucane Road) and Dawson Road, improve intersection",1515755,1942000,0,1942000,0,426245,1515755,0,0,0,0,0,0,Safer Roads Sooner Program,,1,-27.524391,153.239689
Metropolitan,Redland City,State,3031443,"Capalaba - Cleveland Road (Shore Street West) and Gordon Street intersection (Ormiston), improve intersection",2789268,2800000,0,2800000,0,10732,480268,2309000,0,0,0,0,0,Safer Roads Sooner Program,,1,-27.519479,153.186847
Metropolitan,Redland City,State,2781657,"Cleveland - Redland Bay Road, Anita Street to Giles Road, duplicate lanes",77648760,80000000,0,80000000,0,2351240,10288760,27100000,40260000,40260000,32260000,8000000,0,"The project is in the pre-business case stage, with scope, cost and timing subject to further planning and business case development, and consideration.",https://www.tmr.qld.gov.au/projects/cleveland-redland-bay-road-anita-street-to-giles-road-duplicate-lanes ,1,-27.52585,153.264909
Metropolitan,Redland City,State,1244428,"Cleveland - Redland Bay Road, Anita Street to Magnolia Parade, duplicate to four lanes",32052628,84311130,0,83906677,404453,52258502,27197919,4854709,0,0,0,0,0,,https://www.tmr.qld.gov.au/projects/cleveland-redland-bay-road-upgrade ,1,-27.592658,153.28395
Metropolitan,Redland City,State,3027393,"Cleveland - Redland Bay Road, Russell Street and Bloomfield Street intersection, undertake safety improvements",1244000,1454000,727000,727000,0,210000,1244000,0,0,0,0,0,0,Australian Government Road Safety Program,,1,-27.530072,153.266578
Metropolitan,Redland City,State,3027409,"Cleveland - Redland Bay Road, various locations, design and construct footpath",1572380,1700000,850000,850000,0,127620,1572380,0,0,0,0,0,0,Australian Government Road Safety Program,,0,,
Metropolitan,Redland City,State,3027158,"Cleveland Sub-Arterial Road (Old Cleveland Road), construct cycle path",2950000,3000000,1500000,1500000,0,50000,2950000,0,0,0,0,0,0,Australian Government Road Safety Program,,1,-27.503197,153.123104
Metropolitan,Redland City,State,3245402,"Wahine Drive (Russell Island), install floating walkway",800000,800000,0,800000,0,0,700000,100000,0,0,0,0,0,,,1,-27.67788,153.39335
Metropolitan,Redland City,State,2694693,"Wallaby Road (Redland Bay), construct three lane boat ramp with floating walkway",3200000,3300000,0,3300000,0,100000,2100000,1100000,0,0,0,0,0,,,1,-27.692173,153.320765
Metropolitan,Redland City,State,2486066,"Wellington Point Main Road Jetty, repairs",545000,1275000,0,1275000,0,730000,545000,0,0,0,0,0,0,,,1,-27.466135,153.241305
Metropolitan,Various,State,B06692,Train Crew Capacity Upgrades,3650000,4000000,0,4000000,0,350000,3300000,350000,0,0,0,0,0,,,0,,
Metropolitan,Various local governments,State,3115009,"Centenary Motorway (Darra to Yamanto), corridor protection, planning",1400000,1400000,0,1400000,0,0,0,700000,700000,700000,700000,0,0,,,0,,
Metropolitan,Various local governments,State,2682222,"Cleveland Line Upgrade, planning",4000000,4000000,0,4000000,0,0,1200000,2800000,0,0,0,0,0,,,0,,
Metropolitan,Various local governments,State,1882788,"Metropolitan Region, development of safety projects, planning",1000000,1600000,0,1600000,0,600000,500000,500000,0,0,0,0,0,,,0,,
Metropolitan,Various local governments,State,2686631,"Southern Rail Interchange, planning",2500000,2500000,0,2500000,0,0,550000,1500000,450000,450000,450000,0,0,,,0,,
Metropolitan,Other works,,,Construction Works,497168242,0,71529371,424511557,1127314,0,66878338,96555450,333734454,333734454,199252789,134481665,0,,,0,,
Metropolitan,Other works,,,Corridor Acquisitions (Hardship),16069604,0,0,16069604,0,0,4000000,8069604,4000000,4000000,4000000,0,0,,,0,,
Metropolitan,Other works,,,Corridor Acquisitions (Non-hardship),13723879,0,0,13723879,0,0,3500000,4098097,6125782,6125782,6125782,0,0,,,0,,
Metropolitan,Other works,,,Corridor and Minor Safety Enhancements,19123834,0,810362,18313472,0,0,7015234,6328843,5779757,5779757,2856152,2923605,0,,,0,,
Metropolitan,Other works,,,"Corridor, Roadway and Structures Management",6278837,0,0,6278837,0,0,2751692,1256926,2270219,2270219,1141115,1129104,0,,,0,,
Metropolitan,Other works,,,Infrastructure (Non-capital),414126,0,0,414126,0,0,414126,0,0,0,0,0,0,,,0,,
Metropolitan,Other works,,,Local Government Transport Development,49127062,0,20918000,28209062,0,0,35423485,6748002,6955575,6955575,3096752,3858823,0,,,0,,
Metropolitan,Other works,,,Natural Disaster Rehabilitation and Replacement,4995371,0,3709030,1286341,0,0,350000,4645371,0,0,0,0,0,,,0,,
Metropolitan,Other works,,,Other European Train Control System Level 2 - Inner City,100090657,0,0,100090657,0,0,36392514,36099630,27598513,27598513,27598513,0,0,"The Other European Train Control System Level Two Inner City line item is the capitalised interest. This amount reflects changes to program funding and interest rates. Consistent with all capital expenditure, this is not considered part of the cost of delivering the project.",,0,,
Metropolitan,Other works,,,Programmed Maintenance,114632973,0,9125702,105448031,59240,0,27602977,28440869,58589127,58589127,29199975,29389152,0,,,0,,
Metropolitan,Other works,,,Rehabilitation,142900879,0,10279950,132620929,0,0,49456820,24982663,68461396,68461396,32382418,36078978,0,,,0,,
Metropolitan,Other works,,,Routine Maintenance,179063606,0,12568328,166495278,0,0,37867894,44433867,96761845,96761845,46360903,50400942,0,,,0,,
Metropolitan,Other works,,,Traffic Management Enhancements,22864455,0,1512242,21352213,0,0,9576811,7441000,5846644,5846644,3880614,1966030,0,,,0,,
Metropolitan,Other works,,,Traffic Operations,52335317,0,2024000,50311317,0,0,28929004,10642313,12764000,12764000,6764000,6000000,0,,,0,,
Metropolitan,Other works,,,Transport Network Investments,20613984,0,747416,19866568,0,0,5466788,3147196,12000000,12000000,2000000,10000000,0,,,0,,
Metropolitan,Other works,,,Transport Planning,6601748,0,0,6601748,0,0,1058902,2800000,2742846,2742846,2442846,300000,0,,,0,,
North Coast,Moreton Bay City,National,2349359,"Bruce Highway (Brisbane - Gympie), Anzac Avenue to Uhlmann Road upgrade, business case",5725817,12000000,9600000,2400000,0,6274183,5725817,0,0,0,0,0,0,,,1,-27.190595,152.986763
North Coast,Moreton Bay City,National,2588655,"Bruce Highway (Brisbane - Gympie), Anzac Avenue to Uhlmann Road upgrade, funding commitment",506600000,733000000,586400000,146600000,0,0,8500000,280375000,217725000,217725000,202025000,15700000,226400000,"The project is in the pre-business case stage, with scope, cost and timing subject to further planning and business case development, and consideration.",,1,-27.189556,152.986552
North Coast,Moreton Bay City,National,2348820,"Bruce Highway (Brisbane - Gympie), Buchanan Road to Caboolture - Bribie Island Road upgrade, business case",10267966,12000000,9600000,2400000,0,1732034,1000000,267966,9000000,9000000,9000000,0,0,,,1,-27.098302,152.975898
North Coast,Moreton Bay City,National,1739444,"Bruce Highway (Brisbane - Gympie), Dohles Rocks Road to Anzac Avenue upgrade (Stage 1)",181430121,290000000,232000000,58000000,0,30164879,80898401,78936720,21595000,21595000,0,21595000,78405000,"The project is in the post-business case stage, with cost and timing subject to confirmation following market engagement and consideration.",https://www.tmr.qld.gov.au/projects/bruce-highway-brisbane-gympie-dohles-rocks-road-to-anzac-avenue-upgrade ,1,-27.253541,153.019207
North Coast,Moreton Bay City,National,1509103,"Bruce Highway (Brisbane - Gympie), Gateway Motorway to Dohles Rocks Road upgrade (Stage 1)",392836006,948000000,758400000,189600000,0,36204915,30000000,58766107,304069899,304069899,51682496,252387403,518959079,"The project has a business case, with scope, cost and timing subject to further project development and site investigations, and consideration.",https://www.tmr.qld.gov.au/projects/bruce-highway-brisbane-gympie-gateway-motorway-to-dohles-rocks-road-upgrade ,1,-27.279617,153.019835
North Coast,Moreton Bay City,National,3217683,"Bruce Highway (Brisbane - Gympie), Gateway Motorway to Dohles Rocks Road upgrade (Stage 2), detailed design",30000000,30000000,15000000,15000000,0,0,20000000,10000000,0,0,0,0,0,"The project has a business case, with scope, cost and timing subject to further project development and site investigations, and consideration.",,1,-27.279617,153.019835
North Coast,Moreton Bay City,National,2349159,"Bruce Highway (Brisbane - Gympie), Uhlmann Road to Buchanan Road upgrade, business case",4978321,10000000,8000000,2000000,0,5021679,4978321,0,0,0,0,0,0,,,1,-27.121948,152.977281
North Coast,Moreton Bay City,State,3019850,"Anzac Avenue, Elizabeth Avenue and Boardman Road intersection, intersection and pedestrian upgrades",8350000,9000000,4500000,4500000,0,650000,8350000,0,0,0,0,0,0,Australian Government Road Safety Program,,1,-27.227122,153.084764
North Coast,Moreton Bay City,State,3020165,"Anzac Avenue, Percy Street to Gomersall Street, construct signalised pedestrian crossing",1065000,1300000,650000,650000,0,235000,1065000,0,0,0,0,0,0,Australian Government Road Safety Program,,1,-27.22975,153.107072
North Coast,Moreton Bay City,State,3053550,"Beerburrum Road, Twin View Road and English Street (Elimbah), improve safety",5931000,5931000,0,5931000,0,0,750000,4091000,1090000,1090000,1090000,0,0,Safer Roads Sooner Program,,1,-27.01148,152.943586
North Coast,Moreton Bay City,State,2422540,Bribie Island and surrounds transport and mobility study,91840,472489,0,472489,0,380649,91840,0,0,0,0,0,0,,,0,,
North Coast,Moreton Bay City,State,3053007,"Brighton - Redcliffe Road (Hornibrook Esplanade) and Oxley Avenue (Woody Point) intersection, improve safety",3977000,3977000,0,3977000,0,0,185000,2716000,1076000,1076000,1076000,0,0,Safer Roads Sooner Program,,1,-27.259025,153.102733
North Coast,Moreton Bay City,State,2777308,"Brisbane - Woodford Road (Gympie Road) and Paisley Drive intersection, install traffic signals",1812000,2112000,0,2112000,0,300000,1338000,474000,0,0,0,0,0,Safer Roads Sooner Program,,1,-27.290207,152.985003
North Coast,Moreton Bay City,State,2905583,"Brisbane - Woodford Road, 2022 Disaster Recovery Funding Arrangements reconstruction works",5500843,5839843,4379882,1459961,0,339000,5500843,0,0,0,0,0,0,Funding administered by the Queensland Reconstruction Authority.,,1,-27.19812,152.842746
North Coast,Moreton Bay City,State,2263283,"Burpengary - Caboolture Road (Morayfield Road), Aquatic Centre Drive to Graham Road, planning",1730000,2130000,0,2130000,0,400000,1105000,625000,0,0,0,0,0,,,1,-27.134252,152.963417
North Coast,Moreton Bay City,State,B06064,"Burpengary train station, Burpengary Road, upgrade station",14633726,45971999,0,45971999,0,31338273,14583726,50000,0,0,0,0,0,,,1,-27.1619,152.957402
North Coast,Moreton Bay City,State,1862714,"Caboolture - Bribie Island Road, Bribie Island Bridge, planning",1040000,5232495,0,5232495,0,4192495,850000,190000,0,0,0,0,0,,,1,-27.07201,153.143698
North Coast,Moreton Bay City,State,1779573,"Caboolture - Bribie Island Road, Hickey Road to King Johns Creek, upgrade",52988500,59000000,10000000,49000000,0,11500,1300000,17757000,33931500,33931500,16933000,16998500,6000000,"The project has a business case, with scope, cost and timing subject to further project development and site investigations, and consideration and negotiation with the Australian Government, including funding splits.",https://www.tmr.qld.gov.au/projects/caboolture-bribie-island-road-hickey-road-to-king-johns-creek ,1,-27.078003,153.002738
North Coast,Moreton Bay City,State,490481,"Caboolture - Bribie Island Road, planning",800000,2988315,0,2988315,0,2188315,10000,286000,504000,504000,504000,0,0,,,1,-27.07575,153.011887
North Coast,Moreton Bay City,State,1158882,"Caboolture - Bribie Island Road, upgrade program",32105668,48230000,28915000,19315000,0,16124332,3000000,15000000,14105668,14105668,13000000,1105668,0,"The project is in the post-business case stage, with cost and timing subject to confirmation following market engagement and consideration.",https://www.tmr.qld.gov.au/projects/caboolture-bribie-island-road-old-toorbul-point-road-to-saint-road ,1,-27.073091,153.033091
North Coast,Moreton Bay City,State,3054303,"Deception Bay Road, Bay Avenue and Moreton Downs Drive intersection, improve safety",8340000,8340000,0,8340000,0,0,1150000,4230000,2960000,2960000,2960000,0,0,Safer Roads Sooner Program,,1,-27.196705,153.029526
North Coast,Moreton Bay City,State,2506484,"Kilcoy - Beerwah Road, 2022 Disaster Recovery Funding Arrangements reconstruction works",3225146,4660488,3495367,1165121,0,1435342,3225146,0,0,0,0,0,0,Funding administered by the Queensland Reconstruction Authority.,,1,-26.838135,152.817488
North Coast,Moreton Bay City,State,1868909,"Linkfield Connection Road duplication, planning",1600000,1600000,0,1600000,0,0,5000,55000,1540000,1540000,1540000,0,0,,,1,-27.328494,152.992394
North Coast,Moreton Bay City,State,2356888,"Maleny - Stanley River Road, road realignment, undertake safety improvements",8460000,9000000,4500000,4500000,0,540000,8460000,0,0,0,0,0,0,Australian Government Road Safety Program,,1,-26.822828,152.773211
North Coast,Moreton Bay City,State,3236161,"Morayfield transport and mobility study, planning",400000,400000,0,400000,0,0,0,200000,200000,200000,200000,0,0,,,0,,
North Coast,Moreton Bay City,State,2971315,"Mount Glorious Road, 2022 Disaster Recovery Funding Arrangements reconstruction works",838339,1576339,1182254,394085,0,738000,838339,0,0,0,0,0,0,Funding administered by the Queensland Reconstruction Authority.,,1,-27.329393,152.943052
North Coast,Moreton Bay City,State,3019467,"Redcliffe Road (Anzac Avenue) and Halpine Drive, upgrade intersection",4000000,4500000,2250000,2250000,0,500000,4000000,0,0,0,0,0,0,Australian Government Road Safety Program,,1,-27.241789,153.024257
North Coast,Moreton Bay City,State,2996261,"Samford - Mount Glorious Road, 2022 Disaster Recovery Funding Arrangements reconstruction works",5273614,7096614,5322461,1774153,0,1823000,5273614,0,0,0,0,0,0,Funding administered by the Queensland Reconstruction Authority.,,1,-27.378344,152.831303
North Coast,Moreton Bay City,State,1490751,"Samford Road and Camp Mountain Road, improve safety",1629115,2850000,0,2850000,0,1220885,304115,1325000,0,0,0,0,0,Safer Roads Sooner Program,,1,-27.389713,152.904078
North Coast,Moreton Bay City,State,1146288,"Samford Road, Lomandra Park to Camp Mountain Road, improve safety",7341164,11133000,0,11133000,0,3791836,3979164,3300000,62000,62000,62000,0,0,Safer Roads Sooner Program,https://www.tmr.qld.gov.au/projects/samford-road-safety-improvements ,1,-27.393069,152.907249
North Coast,Moreton Bay City,State,1765599,Scarborough Boat Harbour master planning,185032,575000,0,575000,0,389968,185032,0,0,0,0,0,0,,,1,-27.21273,153.10009
North Coast,Moreton Bay City,State,1572868,"Strathpine - Samford Road, Eatons Crossing Road and Mount Samson Road intersection, improve safety",37466565,75200000,0,75200000,0,37733435,32266565,5200000,0,0,0,0,0,High Risk Roads Initiative,https://www.tmr.qld.gov.au/projects/strathpine-samford-road-eatons-crossing-road-and-mount-samson-road-improve-intersection ,1,-27.345765,152.907256
North Coast,Noosa Shire,National,2932948,"Bruce Highway (Brisbane - Gympie), 2022 Disaster Recovery Funding Arrangements reconstruction works",5534151,5534151,4150613,1383538,0,0,5534151,0,0,0,0,0,0,Funding administered by the Queensland Reconstruction Authority.,,1,-26.388018,152.839209
North Coast,Noosa Shire,State,2932638,"Cooroy - Gympie Road, 2022 Disaster Recovery Funding Arrangements reconstruction works",103887,1153887,865415,288472,0,1050000,103887,0,0,0,0,0,0,Funding administered by the Queensland Reconstruction Authority.,,1,-26.391746,152.859653
North Coast,Noosa Shire,State,2357846,"Eumundi - Noosa Road, Emu Mountain Road to Beckmans Road, widen existing pavement",23500000,25000000,12500000,12500000,0,1500000,14250000,9250000,0,0,0,0,0,Australian Government Road Safety Program,,1,-26.426412,153.02485
North Coast,Sunshine Coast Regional,State,3019297,"Eumundi - Noosa Road, Seib Road, construct pathway and pedestrian bridge",5720000,6000000,3000000,3000000,0,280000,5720000,0,0,0,0,0,0,Australian Government Road Safety Program,,1,-26.473796,152.958542
North Coast,Noosa Shire,State,2383345,"Kin Kin Road, Sallwood Court to Turnbull Road, strengthen and widen pavement",11992000,12500000,0,12500000,0,508000,100000,3392000,8500000,8500000,8500000,0,0,,,1,-26.319032,152.872913
North Coast,Noosa Shire,State,2383346,"Kin Kin Road, Williams Road to Western Branch Road, strengthen and widen pavement",24669369,25200000,0,25200000,0,530631,110000,100000,24459369,24459369,24459369,0,0,,,1,-26.297704,152.876236
North Coast,Noosa Shire,State,2684020,"Tewantin Bypass, Beckmans Road, planning",1300000,1400000,0,1400000,0,100000,0,0,1300000,1300000,300000,1000000,0,,,1,-26.408431,153.017506
North Coast,Noosa Shire,Local,2581248,"Lawnville Road (Cooroy), replace bridge",932331,2330829,1864663,0,466166,932332,932331,0,0,0,0,0,0,Australian Government Safer Local Roads and Infrastructure Program,,1,-26.425726,152.88043
North Coast,Somerset Regional,National,2971639,"Warrego Highway (Ipswich - Toowoomba), 2022 Disaster Recovery Funding Arrangements reconstruction works",3428483,3805483,2854112,951371,0,377000,3428483,0,0,0,0,0,0,Funding administered by the Queensland Reconstruction Authority.,,1,-27.550333,152.524405
North Coast,Somerset Regional,State,2367654,"Brisbane Valley Highway Safety Upgrade, funding commitment",20000000,20000000,20000000,0,0,0,500000,6000000,13500000,13500000,13500000,0,0,,,1,-27.261558,152.483133
North Coast,Somerset Regional,State,2959685,"Brisbane Valley Rail Trail, Black Snake gully, rehabilitate bridge and crossing",750000,1500000,0,1500000,0,750000,750000,0,0,0,0,0,0,,,1,-27.294304,152.412018
North Coast,Somerset Regional,State,2383091,"Coominya Connection Road, Buaraba Creek, replace timber bridge",11359581,12000000,0,12000000,0,640419,3000000,7359581,1000000,1000000,1000000,0,0,"The project is in the post-business case stage, with cost and timing subject to confirmation following market engagement and consideration.",,1,-27.424339,152.489081
North Coast,Somerset Regional,State,2358722,"D'Aguilar Highway (Caboolture - Kilcoy), Mary Smokes Creek Road to Villeneuve Road, widen existing pavement",4490000,4660000,2330000,2330000,0,170000,4490000,0,0,0,0,0,0,Australian Government Road Safety Program,,1,-26.933924,152.674765
North Coast,Somerset Regional,State,2358860,"D'Aguilar Highway (Kilcoy - Yarraman) and Brisbane Valley Highway (Ipswich - Harlin), intersection upgrades",1210000,1550000,775000,775000,0,340000,1210000,0,0,0,0,0,0,Australian Government Road Safety Program,,1,-26.944255,152.356141
North Coast,Somerset Regional,State,2971615,"Esk - Kilcoy Road, 2022 Disaster Recovery Funding Arrangements reconstruction works",11476963,13656963,10242722,3414241,0,2180000,11476963,0,0,0,0,0,0,Funding administered by the Queensland Reconstruction Authority.,,1,-27.175446,152.455113
North Coast,Somerset Regional,State,2921011,"Kilcoy - Murgon Road, 2022 Disaster Recovery Funding Arrangements reconstruction works",2339673,2918673,2189005,729668,0,579000,2339673,0,0,0,0,0,0,Funding administered by the Queensland Reconstruction Authority.,,1,-26.8667,152.523395
North Coast,Somerset Regional,State,2971337,"Mount Glorious Road, 2022 Disaster Recovery Funding Arrangements reconstruction works",2287173,4124173,3093130,1031043,0,1837000,2287173,0,0,0,0,0,0,Funding administered by the Queensland Reconstruction Authority.,,1,-27.315801,152.747002
North Coast,Somerset Regional,State,2970551,"Mount Glorious Road, 2022 Disaster Recovery Funding Arrangements reconstruction works",863392,1205392,904044,301348,0,342000,863392,0,0,0,0,0,0,Funding administered by the Queensland Reconstruction Authority.,,1,-27.30597,152.69515
North Coast,Somerset Regional,Local,3186073,"Forest Hill Fernvale Road and Lowood Minden Road, Sea Eagle Drive to Russell Road, construct shared path",1200000,2400000,0,1200000,1200000,0,600000,600000,0,0,0,0,0,,,1,-27.466763,152.557546
North Coast,Somerset Regional,Local,2519146,"Lowood Minden Road, near Kisslings Road intersection, strengthen and widen pavement",1089763,1434204,1147363,0,286841,57600,1089763,0,0,0,0,0,0,Australian Government Safer Local Roads and Infrastructure Program,,1,-27.541322,152.542095
North Coast,Somerset Regional,Local,3006253,"McCulkins Lane and Muckerts Lane (Fernvale), strengthen and widen pavement",5000000,10003000,5000000,0,5003000,0,2500000,2500000,0,0,0,0,0,Australian Government Safer Local Roads and Infrastructure Program,,1,-27.471601,152.633585
North Coast,Somerset Regional,Local,2615407,"Neurum Road (Villeneuve), Lester Kropp Bridge, replace bridge",2500000,7273576,5000000,0,2273576,2500000,2500000,0,0,0,0,0,0,Australian Government Safer Local Roads and Infrastructure Program,,1,-26.964688,152.636038
North Coast,Sunshine Coast Regional,National,858087,Beerburrum to Nambour Rail Upgrade (Stage 1),798032391,1004191000,616700000,387491000,0,166158609,114977241,328786450,354268700,354268700,264668700,89600000,40000000,"The project is in the post-business case stage, with cost and timing subject to confirmation following market engagement and consideration.",https://www.tmr.qld.gov.au/projects/beerburrum-to-nambour-rail-upgrade-stage-1 ,1,-26.781012,152.964315
North Coast,Sunshine Coast Regional,National,2295870,"Beerburrum to Nambour Rail Upgrade, duplication study",5480108,6250000,5000000,1250000,0,769892,2480108,3000000,0,0,0,0,0,"The project is in the pre-business case stage, with scope, cost and timing subject to further planning and business case development, and consideration.",https://www.tmr.qld.gov.au/projects/beerburrum-to-nambour-rail-upgrade-stage-1 ,1,-26.775531,152.966482
North Coast,Sunshine Coast Regional,National,2933006,"Bruce Highway (Brisbane - Gympie), 2022 Disaster Recovery Funding Arrangements reconstruction works",3451272,3698272,2773704,924568,0,247000,3451272,0,0,0,0,0,0,Funding administered by the Queensland Reconstruction Authority.,,1,-26.633757,152.987931
North Coast,Sunshine Coast Regional,State,2683429,"Caloundra Road and Nicklin Way, upgrade intersection, business case",2500000,2500000,0,2500000,0,0,300000,1000000,1200000,1200000,1200000,0,0,,,1,-26.798764,153.114101
North Coast,Sunshine Coast Regional,State,12419,"David Low Way Cycle Facility (Stage 1, 2 and 3), Runway Drive to Keith Royal Drive, construct cycleway",3426805,5742077,0,5742077,0,2315272,0,600000,2826805,2826805,2826805,0,0,,https://www.tmr.qld.gov.au/projects/david-low-way-cycle-facility ,1,-26.61043,153.093209
North Coast,Sunshine Coast Regional,State,3024759,"Direct Sunshine Coast Rail Line (Stage 1), funding commitment",2138200000,5500000000,2750000000,2750000000,0,5000000,110800000,182000000,1845400000,1845400000,800000000,1045400000,3356800000,"The project has a business case, with scope, cost and timing subject to further project development and site investigations, and consideration. Stage 1 is expected to cost between $5.5 billion to $7 billion, with cost estimates to be finalised following further design development, market engagement and procurement.",,1,-26.83164,153.038442
North Coast,Sunshine Coast Regional,State,2360976,"Glass House Mountains Road (Steve Irwin Way) and Caloundra Street, intersection upgrade",11288929,11600000,3850000,7750000,0,311071,500000,5388929,5400000,5400000,4500000,900000,0,"The project is in the post-business case stage, with cost and timing subject to confirmation following market engagement and consideration. Funding splits under negotiation.",https://www.tmr.qld.gov.au/projects/glass-house-mountains-road-steve-irwin-way-and-caloundra-street-intersection-upgrade ,1,-26.806065,152.977482
North Coast,Sunshine Coast Regional,State,2357662,"Glass House Mountains Road (Steve Irwin Way), widen existing pavement",36250000,38000000,19000000,19000000,0,1750000,15625000,20625000,0,0,0,0,0,Australian Government Road Safety Program,,1,-26.88497,152.961918
North Coast,Sunshine Coast Regional,State,2971516,"Kenilworth - Brooloo Road, 2022 Disaster Recovery Funding Arrangements reconstruction works",781604,3925604,2944203,981401,0,3144000,781604,0,0,0,0,0,0,Funding administered by the Queensland Reconstruction Authority.,,1,-26.580053,152.725476
North Coast,Sunshine Coast Regional,State,2932201,"Kilcoy - Beerwah Road, 2022 Disaster Recovery Funding Arrangements reconstruction works",2554583,2922583,2191937,730646,0,368000,2554583,0,0,0,0,0,0,Funding administered by the Queensland Reconstruction Authority.,,1,-26.834728,152.831805
North Coast,Sunshine Coast Regional,State,2955407,"Maleny - Kenilworth Road, 2022 Disaster Recovery Funding Arrangements reconstruction works",866748,1438748,1079061,359687,0,572000,866748,0,0,0,0,0,0,Funding administered by the Queensland Reconstruction Authority.,,1,-26.709046,152.805029
North Coast,Sunshine Coast Regional,State,2971670,"Maleny - Stanley River Road Site 9, 2022 Disaster Recovery Funding Arrangements reconstruction works",6040435,6040435,4530326,1510109,0,0,6040435,0,0,0,0,0,0,Funding administered by the Queensland Reconstruction Authority.,,1,-26.799109,152.796158
North Coast,Sunshine Coast Regional,State,3019605,"Maroochydore - Noosa Road (Bradman Avenue), Diura Street and Denna Street, improve intersections",5550000,7000000,3500000,3500000,0,1450000,5550000,0,0,0,0,0,0,Australian Government Road Safety Program,,1,-26.642648,153.067749
North Coast,Sunshine Coast Regional,State,1868964,"Maroochydore - Noosa Road (David Low Way), Bli Bli Bridge upgrade, planning",2230000,3030000,0,3030000,0,800000,800000,1430000,0,0,0,0,0,,,1,-26.62204,153.044797
North Coast,Sunshine Coast Regional,State,2218194,"Maroochydore Road, Pike Street and Killick Street intersection upgrade, design",1045406,2100000,0,2100000,0,1054594,345406,700000,0,0,0,0,0,Funding is for pre-construction activities only.,https://www.tmr.qld.gov.au/projects/maroochydore-road-pike-street-and-killick-street-intersection-upgrade-design ,1,-26.662118,153.031918
North Coast,Sunshine Coast Regional,State,1682050,"Mooloolaba Harbour entrance, dredging and bed levelling",1000000,5649893,0,5079893,570000,4649893,500000,500000,0,0,0,0,0,,https://www.msq.qld.gov.au/Boating-facilities/Mooloolaba-boat-harbour-dredging ,1,-26.680389,153.133594
North Coast,Sunshine Coast Regional,State,2915925,"Nambour - Mapleton Road, 2022 Disaster Recovery Funding Arrangements reconstruction works",309695,1102695,827021,275674,0,793000,309695,0,0,0,0,0,0,Funding administered by the Queensland Reconstruction Authority.,,1,-26.623102,152.91579
North Coast,Sunshine Coast Regional,State,3020359,"Nicklin Way, Meridian Street and Beach Drive, intersection and footpath upgrades",4310000,4685000,2342500,2342500,0,375000,4310000,0,0,0,0,0,0,Australian Government Road Safety Program,,1,-26.741037,153.129002
North Coast,Sunshine Coast Regional,State,2836018,"Nicklin Way, Piringa Street to Moondara Drive, improve safety",3270000,3470000,0,3470000,0,200000,2270000,1000000,0,0,0,0,0,,,1,-26.759747,153.124973
North Coast,Sunshine Coast Regional,State,1776710,"Nicklin Way, Third Avenue extension, new intersection",10647346,11200000,0,7000000,4200000,552564,2000000,8647346,0,0,0,0,0,"The project has a business case, with scope, cost and timing subject to further project development and site investigations, consideration and negotiation with the Sunshine Coast Regional Council.",https://www.tmr.qld.gov.au/projects/nicklin-way-third-avenue-extension-intersection ,1,-26.796896,153.119571
North Coast,Sunshine Coast Regional,State,2505657,"Obi Obi Road, 2022 Disaster Recovery Funding Arrangements reconstruction works",3807225,4500519,3375390,1125129,0,693294,3807225,0,0,0,0,0,0,Funding administered by the Queensland Reconstruction Authority.,,1,-26.639854,152.840403
North Coast,Sunshine Coast Regional,State,1236359,"Sunshine Coast Public Transport, business case",2722014,16500000,5000000,6500000,5000000,13777986,2722014,0,0,0,0,0,0,,,1,-26.69534,153.1155
North Coast,Sunshine Coast Regional,State,2683782,"Sunshine Motorway (Mooloolaba - Peregian), David Low Way to Yandina - Coolum Road duplication, business case",3000000,3000000,0,3000000,0,0,0,0,3000000,3000000,500000,2500000,0,,,1,-26.568589,153.073027
North Coast,Sunshine Coast Regional,State,2356108,"Sunshine Motorway (Tanawha - Mooloolaba), Dixon Road to Mooloolah River interchange, business case",4400000,5000000,2500000,2500000,0,600000,200000,400000,3800000,3800000,2300000,1500000,0,,,1,-26.712368,153.078021
North Coast,Sunshine Coast Regional,State,2007574,"Sunshine Motorway, Mooloolah River Interchange Upgrade (Stage 1)",100272774,176750000,16750000,160000000,0,76477226,10150000,9950000,80172774,80172774,64050000,16122774,0,Project details and timing subject to further planning and negotiation with funding partners.,https://www.tmr.qld.gov.au/projects/sunshine-motorway-mooloolah-river-interchange-upgrade-stage-1 ,1,-26.694423,153.110328
North Coast,Sunshine Coast Regional,State,2971589,"Woombye - Montville Road, 2022 Disaster Recovery Funding Arrangements reconstruction works",1943736,3427736,2570802,856934,0,1484000,1943736,0,0,0,0,0,0,Funding administered by the Queensland Reconstruction Authority.,,1,-26.700077,152.910745
North Coast,Sunshine Coast Regional,State,2383109,"Yandina - Coolum Road, South Coolum Road and School Road, upgrade roundabout",5900000,6000000,0,6000000,0,100000,3500000,2400000,0,0,0,0,0,,,1,-26.536417,153.077323
North Coast,Sunshine Coast Regional,Local,3203844,"Beerburrum to Landsborough (Stage 1), Beerwah to Glass House, construct active transport facilities",5805045,6100000,0,6100000,0,294955,249850,2680674,2874521,2874521,2874521,0,0,,,0,,
North Coast,Sunshine Coast Regional,Local,3043499,"Cotton Tree area pedestrian safety project, undertake safety improvements",1772500,1772500,1772500,0,0,0,550000,1222500,0,0,0,0,0,Australian Government Black Spot Program,,1,-26.657142,153.10077
North Coast,Various local governments,National,3016097,Road Safety Asset Management,480000,1200000,0,1200000,0,720000,480000,0,0,0,0,0,0,,,1,-27.291313,153.01904
North Coast,Various local governments,State,2046348,"North Brisbane - Bruce Highway Western Alternative, planning",11029153,20000000,10000001,9999999,0,8970847,1629153,1400000,8000000,8000000,2000000,6000000,0,Australian Government Major Projects Business Case Fund,https://www.tmr.qld.gov.au/projects/north-brisbane-bruce-highway-western-alternative-planning ,0,,
North Coast,Other works,,,Construction Works,69545396,0,21023450,47763988,757958,0,31111005,31852277,6582114,6582114,6079395,502719,0,,,0,,
North Coast,Other works,,,Corridor Acquisitions (Hardship),57200000,0,0,57200000,0,0,18500000,15000000,23700000,23700000,12700000,11000000,0,,,0,,
North Coast,Other works,,,Corridor and Minor Safety Enhancements,33227300,0,3802246,29325636,99418,0,16967620,8580008,7679672,7679672,4583836,3095836,0,,,0,,
North Coast,Other works,,,"Corridor, Roadway and Structures Management",5468658,0,0,5468658,0,0,2153808,2019994,1294856,1294856,415206,879650,0,,,0,,
North Coast,Other works,,,Local Government Transport Development,48640082,0,30345297,18294785,0,0,34707737,5919115,8013230,8013230,4006615,4006615,0,,,0,,
North Coast,Other works,,,Natural Disaster Rehabilitation and Replacement,12354855,0,9266143,3088712,0,0,1824153,10530702,0,0,0,0,0,,,0,,
North Coast,Other works,,,Programmed Maintenance,152732069,0,14432286,138299783,0,0,39433497,39331856,73966716,73966716,40378742,33587974,0,,,0,,
North Coast,Other works,,,Rehabilitation,157352444,0,9041514,148310930,0,0,53433426,35314207,68604811,68604811,36871768,31733043,0,,,0,,
North Coast,Other works,,,Routine Maintenance,135293952,0,11412829,123881123,0,0,27299616,34000494,73993842,73993842,35868671,38125171,0,,,0,,
North Coast,Other works,,,Traffic Management Enhancements,25217476,0,12000000,13217476,0,0,4540476,2447000,18230000,18230000,18000000,230000,0,,,0,,
North Coast,Other works,,,Traffic Operations,12967342,0,2176000,10791342,0,0,11812342,627000,528000,528000,528000,0,0,,,0,,
North Coast,Other works,,,Transport Network Investments,1136434,0,454574,681860,0,0,0,1136434,0,0,0,0,0,,,0,,
North Coast,Other works,,,Transport Planning,13012413,0,0,13012413,0,0,6207413,4410000,2395000,2395000,2395000,0,0,,,0,,
Wide Bay/Burnett,Bundaberg Regional,State,2832212,"Booyal - Dallarnil Road, 2022 Disaster Recovery Funding Arrangements reconstruction works",770626,8476882,6357662,2119220,0,7706256,770626,0,0,0,0,0,0,Funding administered by the Queensland Reconstruction Authority.,,1,-25.238001,152.036463
Wide Bay/Burnett,Bundaberg Regional,State,8516,"Bundaberg - Bargara Road, Kalkie to Potters Road, develop active transport facility, planning",500000,1062018,0,1062018,0,562018,250000,250000,0,0,0,0,0,,,1,-24.832874,152.424946
Wide Bay/Burnett,Bundaberg Regional,State,1219374,"Bundaberg - Bargara Road, upgrade targeted sections",10000000,10000000,8000000,2000000,0,0,0,0,10000000,10000000,0,10000000,0,,,1,-24.849191,152.390832
Wide Bay/Burnett,Bundaberg Regional,State,761820,"Bundaberg - Port Road, Bundaberg - Bargara Road to Port of Bundaberg, planning",1650000,2613805,0,2613805,0,963805,250000,600000,800000,800000,800000,0,0,,,1,-24.793021,152.405108
Wide Bay/Burnett,Bundaberg Regional,State,2906247,"Isis Highway (Bundaberg - Childers), 2022 Disaster Recovery Funding Arrangements reconstruction works",2894571,3425740,2569306,856434,0,531169,1254149,1640422,0,0,0,0,0,Funding administered by the Queensland Reconstruction Authority.,,1,-25.023868,152.215209
Wide Bay/Burnett,Bundaberg Regional,State,3019323,"Isis Highway (Bundaberg - Childers), Kendalls Road - University Drive (Bundaberg), construct footpath",800000,1240000,620000,620000,0,440000,800000,0,0,0,0,0,0,Australian Government Road Safety Program,,1,-24.893824,152.316152
Wide Bay/Burnett,Bundaberg Regional,State,1776639,"Isis Highway (Bundaberg - Childers), various locations, improve safety",33887000,41942574,0,41942574,0,8055574,8000000,14000000,11887000,11887000,11887000,0,0,High Risk Roads Initiative,https://www.tmr.qld.gov.au/projects/isis-highway-bundaberg-childers-various-locations-improve-safety ,1,-25.038884,152.222694
Wide Bay/Burnett,Bundaberg Regional,State,3176283,"Walkers Point (Woodgate), upgrade boat ramp",2900000,3000000,0,3000000,0,100000,1400000,1500000,0,0,0,0,0,,,1,-25.171256,152.588726
Wide Bay/Burnett,Bundaberg Regional,Local,1542894,"Bundaberg to Gin Gin rail trail, Bundaberg to Koolboo Road, construct rail trail",8625069,19112010,0,9556005,9556005,930936,8625069,0,0,0,0,0,0,Queensland Government contribution subject to confirmation of Bundaberg Regional Council’s funding contribution.,,0,,
Wide Bay/Burnett,Bundaberg Regional,Local,3229791,"Wallaville Goondoon Road, rehabilitate and widen pavement",2969617,6850000,0,2969617,3880383,0,8971,1168015,1792631,1792631,976923,815708,0,,,1,-25.032542,152.034804
Wide Bay/Burnett,Fraser Coast Regional,National,371601,"Bruce Highway (Gympie - Maryborough), Tiaro Bypass, construct bypass",241986336,336000000,268800000,67200000,0,16012723,5600000,17000000,219386336,219386336,112189059,107197277,78000941,"The project has a business case, with scope, cost and timing subject to further project development and site investigations, and consideration.",https://www.tmr.qld.gov.au/projects/bruce-highway-gympie-maryborough-tiaro-bypass-construct-four-lane-bypass ,1,-25.727536,152.583072
Wide Bay/Burnett,Fraser Coast Regional,State,3019326,"Booral Road (Urangan), Pulgul Creek, extend culvert for pedestrian walkway",2975000,3000000,1500000,1500000,0,25000,2975000,0,0,0,0,0,0,Australian Government Road Safety Program,,1,-25.301227,152.88916
Wide Bay/Burnett,Fraser Coast Regional,State,2182485,"Booral Road and Boundary Road (Urangan), upgrade intersection",24473760,27000000,0,26733901,266099,2526240,1905000,10500000,12068760,12068760,6668760,5400000,0,"The project is in the post-business case stage, with cost and timing subject to confirmation following market engagement and consideration.",https://www.tmr.qld.gov.au/projects/booral-road-and-boundary-road-urangan-intersection-upgrade ,1,-25.304191,152.888072
Wide Bay/Burnett,Fraser Coast Regional,State,3033451,"Booral Road and Doolong South Road (Nikenbah), improve intersection",1162000,1162000,0,1162000,0,0,0,895000,267000,267000,267000,0,0,Safer Roads Sooner Program,,1,-25.344174,152.85163
Wide Bay/Burnett,Fraser Coast Regional,State,2274126,Fraser Coast integrated transport strategy planning,820000,1028000,0,890000,138000,208000,400000,420000,0,0,0,0,0,,,0,,
Wide Bay/Burnett,Fraser Coast Regional,State,3181439,"Gatakers Bay (Point Vernon), dredge access channel",1150000,1150000,0,1150000,0,0,0,150000,1000000,1000000,1000000,0,0,,,1,-25.245217,152.811973
Wide Bay/Burnett,Fraser Coast Regional,State,3243344,"Hervey Bay transport and mobility study, planning",400000,400000,0,400000,0,0,0,200000,200000,200000,200000,0,0,,,0,,
Wide Bay/Burnett,Fraser Coast Regional,State,3033455,"Maryborough - Hervey Bay Road and Cran Street (Tinana), signalise intersection and improve pedestrian facilities",1431000,1431000,0,1431000,0,0,75000,879000,477000,477000,477000,0,0,,,1,-25.545912,152.685007
Wide Bay/Burnett,Fraser Coast Regional,State,2006450,"Maryborough - Hervey Bay Road and Pialba - Burrum Heads Road, upgrade intersection",54567645,55353000,35280000,20073000,0,785355,8194521,24747624,21625500,21625500,20467500,1158000,0,"The project is in the post-business case stage, with cost and timing subject to confirmation following market engagement and consideration. Funding splits under negotiation.",https://www.tmr.qld.gov.au/projects/maryborough-hervey-bay-road-and-pialba-burrum-heads-road-upgrade-intersection ,1,-25.289017,152.814124
Wide Bay/Burnett,Fraser Coast Regional,State,2298689,"Maryborough - Hervey Bay Road, Ibis Boulevard and Fairway Drive, upgrade intersection, business case",420000,700000,0,700000,0,280000,250000,170000,0,0,0,0,0,,,1,-25.287185,152.816496
Wide Bay/Burnett,Fraser Coast Regional,State,3019324,"Maryborough - Hervey Bay Road, upgrade various intersections and improve safety",9900000,10000000,5000000,5000000,0,100000,9900000,0,0,0,0,0,0,Australian Government Road Safety Program,,1,-25.379195,152.768651
Wide Bay/Burnett,Fraser Coast Regional,State,3019325,"Mungar Road (Tiaro), widen pavement",2950000,3000000,1500000,1500000,0,50000,2950000,0,0,0,0,0,0,Australian Government Road Safety Program,,1,-25.709552,152.55963
Wide Bay/Burnett,Fraser Coast Regional,State,3109731,"Owen Cox Street (Poona), upgrade boat ramp and dredge access channel",1800000,1850000,0,1850000,0,50000,800000,1000000,0,0,0,0,0,,,1,-25.722607,152.913515
Wide Bay/Burnett,Fraser Coast Regional,State,2225933,"Pialba - Burrum Heads Road, O'Regan Creek, upgrade existing floodway",27550000,28950000,0,28950000,0,1400000,800000,6000000,20750000,20750000,20000000,750000,0,"The project has a business case, with scope, cost and timing subject to further project development and site investigations, and consideration.",,1,-25.27778,152.709281
Wide Bay/Burnett,Gympie Regional,National,686965,"Bruce Highway (Cooroy to Curra) Section D, construction",192608428,1162000000,929600000,232400000,0,969391572,110608428,82000000,0,0,0,0,0,,https://www.tmr.qld.gov.au/projects/bruce-highway-cooroy-to-curra/bruce-highway-cooroy-to-curra-section-d ,1,-26.221708,152.687365
Wide Bay/Burnett,Gympie Regional,State,2474942,"Burnett Highway (Goomeri - Gayndah), 2022 Disaster Recovery Funding Arrangements reconstruction works",1742667,3587843,2690883,896960,0,1845176,1230118,512549,0,0,0,0,0,Funding administered by the Queensland Reconstruction Authority.,,1,-26.159901,152.06306
Wide Bay/Burnett,Gympie Regional,State,2839142,"Burnett Highway (Goomeri - Gayndah), 2022 Disaster Recovery Funding Arrangements betterment works",3799112,3799112,1899556,1899556,0,0,3039290,759822,0,0,0,0,0,Funding administered by the Queensland Reconstruction Authority.,,1,-25.931052,151.88057
Wide Bay/Burnett,Gympie Regional,State,2839139,"Burnett Highway (Goomeri - Gayndah), 2022 Disaster Recovery Funding Arrangements reconstruction works",1369840,1369840,1027380,342460,0,0,1095872,273968,0,0,0,0,0,Funding administered by the Queensland Reconstruction Authority.,,1,-25.925924,151.872701
Wide Bay/Burnett,Gympie Regional,State,2613345,"Tin Can Bay Road and Bayside Road, construct roundabout",2636500,2802500,0,2802500,0,166000,2465000,171500,0,0,0,0,0,Safer Roads Sooner Program,,1,-25.943222,152.980307
Wide Bay/Burnett,Gympie Regional,State,3033453,"Wide Bay Highway (Gympie - Goomeri) and Bauple Woolooga Road, improve intersection",1033000,1033000,0,1033000,0,0,0,794500,238500,238500,238500,0,0,Safer Roads Sooner Program,,1,-26.074679,152.391677
Wide Bay/Burnett,Gympie Regional,State,2839178,"Wide Bay Highway (Gympie - Goomeri), 2022 Disaster Recovery Funding Arrangements reconstruction works",1019619,1019619,764714,254905,0,0,815695,203924,0,0,0,0,0,Funding administered by the Queensland Reconstruction Authority.,,1,-26.095678,152.333764
Wide Bay/Burnett,Gympie Regional,Local,1906220,"Copp Road, Pritchard Road and Smerdon Road, widen pavement and improve intersection",1141095,2338000,0,1141095,1196905,0,480899,660196,0,0,0,0,0,,,1,-26.20656,152.653795
Wide Bay/Burnett,Gympie Regional,Local,2746650,"Howe Road (Traveston), Six Mile Creek, replace timber bridge",940000,1250000,1000000,0,250000,60000,940000,0,0,0,0,0,0,Australian Government Safer Local Roads and Infrastructure Program,,1,-26.318345,152.783559
Wide Bay/Burnett,Gympie Regional,Local,2746649,"Inglewood Road (Monkland), over the Mary Valley Railway, replace timber bridge",1224000,1620000,1296000,0,324000,72000,1224000,0,0,0,0,0,0,Australian Government Safer Local Roads and Infrastructure Program,,1,-26.210556,152.679447
Wide Bay/Burnett,Gympie Regional,Local,3033062,"Neerdie Road (Gunalda), widen pavement and undertake safety upgrades",1664000,1664000,1664000,0,0,0,1664000,0,0,0,0,0,0,Australian Government Black Spot Program,,1,-25.984689,152.602047
Wide Bay/Burnett,North Burnett Regional,State,717532,"Burnett Highway (Eidsvold), construct off-road shared path",939432,1300000,0,1300000,0,360568,939432,0,0,0,0,0,0,,,1,-25.372216,151.125841
Wide Bay/Burnett,North Burnett Regional,State,2071785,"Cania Dam Road (Moonford), widen and seal shoulders",3690172,4500000,0,4500000,0,809828,3625000,65172,0,0,0,0,0,,,1,-24.740058,151.025431
Wide Bay/Burnett,North Burnett Regional,State,2891590,"Gayndah - Mount Perry Road, widen and seal",2953272,3967510,0,3967510,0,1014238,983708,984781,984783,984783,984783,0,0,Transport Infrastructure Development Scheme,,1,-25.358455,151.732009
Wide Bay/Burnett,North Burnett Regional,State,1646565,"Monto - Mount Perry Road, progressive sealing",2939385,8000000,0,8000000,0,5060615,2876385,63000,0,0,0,0,0,,https://www.tmr.qld.gov.au/projects/monto-mount-perry-road-progressive-sealing ,1,-25.210097,151.414202
Wide Bay/Burnett,North Burnett Regional,State,3019327,"Monto - Mount Perry Road (Stage 3), upgrade to sealed standard",21750000,27000000,13500000,13500000,0,5250000,10875000,10875000,0,0,0,0,0,Australian Government Road Safety Program,,1,-25.110037,151.2456
Wide Bay/Burnett,South Burnett Regional,State,1388289,"D'Aguilar Highway (Yarraman - Kingaroy), Alexander Lane to Bunya Highway, improve safety",2877219,23910000,0,23910000,0,21032781,382549,0,2494670,2494670,2494670,0,0,High Risk Roads Initiative,,1,-26.605778,151.906919
Wide Bay/Burnett,South Burnett Regional,State,845296,"D'Aguilar Highway (Yarraman - Kingaroy), Bushnell Road to Homley Road, strengthen and widen pavement",6697998,11500000,0,11500000,0,4802002,1697998,4500000,500000,500000,500000,0,0,,,1,-26.586353,151.88873
Wide Bay/Burnett,South Burnett Regional,State,2593233,"Maidenwell - Bunya Mountains Road (Section 1), upgrade unsealed road to sealed standard",3850000,6700000,0,6700000,0,2850000,3500000,350000,0,0,0,0,0,,,1,-26.837525,151.686755
Wide Bay/Burnett,South Burnett Regional,State,1912414,"Maidenwell - Bunya Mountains Road (Section 2), upgrade unsealed road to sealed standard",963005,1963750,0,1963750,0,1000745,963005,0,0,0,0,0,0,Transport Infrastructure Development Scheme,,1,-26.828473,151.674062
Wide Bay/Burnett,Various local governments,State,726153,"Maintenance of Road Safety Infrastructure, various locations",983589,2238803,0,2238803,0,1255214,983589,0,0,0,0,0,0,,,0,,
Wide Bay/Burnett,Other works,,,Construction Works,141361350,0,97414523,43946827,0,0,16028279,10312758,115020313,115020313,3090080,111930233,0,,,0,,
Wide Bay/Burnett,Other works,,,Corridor and Minor Safety Enhancements,38525229,0,20895995,17629234,0,0,6378624,5601617,26544988,26544988,2983535,23561453,0,,,0,,
Wide Bay/Burnett,Other works,,,"Corridor, Roadway and Structures Management",3418882,0,0,3418882,0,0,1157617,734732,1526533,1526533,750971,775562,0,,,0,,
Wide Bay/Burnett,Other works,,,Local Government Transport Development,22065689,0,4919141,17146548,0,0,9463027,4082143,8520519,8520519,3275944,5244575,0,,,0,,
Wide Bay/Burnett,Other works,,,Natural Disaster Operational,122599,0,0,122599,0,0,122599,0,0,0,0,0,0,,,0,,
Wide Bay/Burnett,Other works,,,Natural Disaster Rehabilitation and Replacement,35458796,0,26594102,8864694,0,0,16543658,18915138,0,0,0,0,0,,,0,,
Wide Bay/Burnett,Other works,,,Programmed Maintenance,78897048,0,6397684,72499364,0,0,21281336,18848119,38767593,38767593,19350627,19416966,0,,,0,,
Wide Bay/Burnett,Other works,,,Rehabilitation,89829405,0,4778529,85050876,0,0,32123679,18492204,39213522,39213522,18714807,20498715,0,,,0,,
Wide Bay/Burnett,Other works,,,Routine Maintenance,113736884,0,6751110,106985774,0,0,27495944,26985230,59255710,59255710,28427531,30828179,0,,,0,,
Wide Bay/Burnett,Other works,,,Traffic Management Enhancements,1947000,0,400000,1547000,0,0,917000,780000,250000,250000,250000,0,0,,,0,,
Wide Bay/Burnett,Other works,,,Traffic Operations,3307000,0,142000,3165000,0,0,3307000,0,0,0,0,0,0,,,0,,
Wide Bay/Burnett,Other works,,,Transport Planning,6523738,0,1491790,5031948,0,0,1959000,1350000,3214738,3214738,650000,2564738,0,,,0,,
Darling Downs,Goondiwindi Regional,National,2342858,"Gore Highway (Millmerran - Goondiwindi), Wyaga Creek, upgrade floodway",22926749,52400000,41920000,10480000,0,29473251,13577233,9349516,0,0,0,0,0,,https://www.tmr.qld.gov.au/projects/gore-highway-millmerran-goondiwindi-wyaga-creek-upgrade-floodway ,1,-28.281623,150.377123
Darling Downs,Goondiwindi Regional,National,2512903,"Leichhardt Highway (Miles - Goondiwindi), 2022 Disaster Recovery Funding Arrangements reconstruction works",5034360,6841365,5131024,1710341,0,1807005,4654321,380039,0,0,0,0,0,Funding administered by the Queensland Reconstruction Authority.,,1,-28.461181,150.295688
Darling Downs,Goondiwindi Regional,State,2857804,"Barwon Highway (Goondiwindi - Talwood), 2023 Disaster Recovery Funding Arrangements reconstruction works",582743,1382019,1036514,345505,0,799276,504516,78227,0,0,0,0,0,Funding administered by the Queensland Reconstruction Authority.,,1,-28.420829,149.904331
Darling Downs,Goondiwindi Regional,State,2867598,"Leichhardt Highway (Miles - Goondiwindi), 2023 Disaster Recovery Funding Arrangements reconstruction works",1330196,2088292,1566219,522073,0,758096,1211991,118205,0,0,0,0,0,Funding administered by the Queensland Reconstruction Authority.,,1,-28.1656,150.286752
Darling Downs,Goondiwindi Regional,State,2690925,"Yelarbon - Keetah Road (Stage 4), widen pavement",400000,1052664,0,1052664,0,652664,400000,0,0,0,0,0,0,Transport Infrastructure Development Scheme,,1,-28.633581,150.727888
Darling Downs,Lockyer Valley Regional,State,2646594,"Gatton - Clifton Road, 2022 Disaster Recovery Funding Arrangements reconstruction works",980277,1062632,796974,265658,0,82355,906615,73662,0,0,0,0,0,Funding administered by the Queensland Reconstruction Authority.,,1,-27.679593,152.151781
Darling Downs,Lockyer Valley Regional,State,2632962,"Gatton - Clifton Road, Mount Whitestone, business case",430000,1030000,0,1030000,0,600000,280000,150000,0,0,0,0,0,,,1,-27.689504,152.144138
Darling Downs,Lockyer Valley Regional,State,2614872,"Gatton - Helidon Road (Spencer Street) and William Street intersection, improve safety",1998000,1998000,0,1998000,0,0,199000,1228000,571000,571000,571000,0,0,,,1,-27.550257,152.31461
Darling Downs,Lockyer Valley Regional,State,3035392,"Gatton - Helidon Road, Stage 2, undertake safety treatments on high speed sections",32421954,32990765,16495383,16495382,0,568811,16210977,16210977,0,0,0,0,0,Australian Government Road Safety Program,,1,-27.574985,152.18094
Darling Downs,Lockyer Valley Regional,State,2081571,"Gatton - Helidon Road, improve safety",30355155,34107199,17053600,17053599,0,3752044,16790775,13564380,0,0,0,0,0,Australian Government Road Safety Program,,1,-27.578829,152.194545
Darling Downs,Lockyer Valley Regional,State,2709142,"Mount Sylvia Road, 2022 Disaster Recovery Funding Arrangements betterment works",2524470,2600174,1300087,1300087,0,75704,2113104,411366,0,0,0,0,0,Funding administered by the Queensland Reconstruction Authority.,,1,-27.723419,152.221998
Darling Downs,Lockyer Valley Regional,State,2658739,"Mount Sylvia Road, various floodways, 2022 Disaster Recovery Funding Arrangements reconstruction works",12927164,13807170,10355378,3451792,0,880006,11750651,1176513,0,0,0,0,0,Funding administered by the Queensland Reconstruction Authority.,,1,-27.777922,152.192689
