Portfolio,Agency,Asset Type,Header 1,Header 2,Header 3,Project Name,SA4 Name,Total Estimated Cost,Expenditure to 30-06-24,Budget 2024-25,Post 2024-25,Latitude,Longitude
Agriculture and Fisheries,Department of Agriculture and Fisheries,"Property, Plant and Equipment",,,,Assets formerly held by Queensland Agricultural Training Colleges,Central Queensland,"5,850","1,621","3,984",245,-23.52284,148.1843
Agriculture and Fisheries,Department of Agriculture and Fisheries,"Property, Plant and Equipment",,,,Gatton Smart Farm,Toowoomba,"2,000",642,"1,358",N/A,-27.54435,152.33115
Agriculture and Fisheries,Department of Agriculture and Fisheries,"Property, Plant and Equipment",,,,Minor works ,"Brisbane - East,Brisbane - North,Brisbane - South,Brisbane - West,Brisbane Inner City,Ipswich,Logan - Beaudesert,Moreton Bay - North,Moreton Bay - South,Cairns,Darling Downs - Maranoa,Central Queensland,Gold Coast,Mackay - Isaac - Whitsunday,Queensland - Outback,Sunshine Coast,Toowoomba,Townsville,Wide Bay",N/A,N/A,422,Ongoing,,
Agriculture and Fisheries,Department of Agriculture and Fisheries,"Property, Plant and Equipment",,,,Heavy plant and equipment,"Brisbane - East,Cairns,Central Queensland,Toowoomba,Logan - Beaudesert,Sunshine Coast,Wide Bay,Townsville,Mackay - Isaac - Whitsunday,Darling Downs - Maranoa,Ipswich,Brisbane - South",N/A,N/A,"2,048",Ongoing,,
Agriculture and Fisheries,Department of Agriculture and Fisheries,"Property, Plant and Equipment",,,,"Other property, plant and equipment","Brisbane - East,Brisbane - North,Brisbane - South,Brisbane - West,Brisbane Inner City,Ipswich,Logan - Beaudesert,Moreton Bay - North,Moreton Bay - South,Cairns,Darling Downs - Maranoa,Central Queensland,Gold Coast,Mackay - Isaac - Whitsunday,Queensland - Outback,Sunshine Coast,Toowoomba,Townsville,Wide Bay",N/A,N/A,892,Ongoing,,
Agriculture and Fisheries,Department of Agriculture and Fisheries,"Property, Plant and Equipment",,,,Computer equipment ,"Brisbane - East,Brisbane - North,Brisbane - South,Brisbane - West,Brisbane Inner City,Ipswich,Logan - Beaudesert,Moreton Bay - North,Moreton Bay - South,Cairns,Darling Downs - Maranoa,Central Queensland,Gold Coast,Mackay - Isaac - Whitsunday,Queensland - Outback,Sunshine Coast,Toowoomba,Townsville,Wide Bay",N/A,N/A,"5,077",Ongoing,,
Agriculture and Fisheries,Department of Agriculture and Fisheries,"Property, Plant and Equipment",,,,Vessels and marine equipment,"Mackay - Isaac - Whitsunday,Townsville,Gold Coast",N/A,N/A,257,Ongoing,,
Agriculture and Fisheries,Department of Agriculture and Fisheries,"Property, Plant and Equipment",,,,Scientific equipment ,"Cairns,Darling Downs - Maranoa,Toowoomba,Sunshine Coast,Mackay - Isaac - Whitsunday,Brisbane - South,Moreton Bay - North",N/A,N/A,"1,680",Ongoing,,
Agriculture and Fisheries,Department of Agriculture and Fisheries,"Property, Plant and Equipment",,,,Research facilities development,"Toowoomba,Sunshine Coast,Wide Bay,Brisbane - East,Cairns,Townsville,Darling Downs - Maranoa,Moreton Bay - North",N/A,N/A,216,Ongoing,,
Agriculture and Fisheries,Department of Agriculture and Fisheries,"Property, Plant and Equipment",,,,Longreach Office Upgrade,Queensland - Outback,"1,756","1,616",140,N/A,-23.44349,144.28491
Agriculture and Fisheries,Department of Agriculture and Fisheries,"Property, Plant and Equipment",,,,Wild Dog Barrier Fence,Darling Downs - Maranoa,N/A,N/A,"1,610",Ongoing,-26.57837,148.76404
Agriculture and Fisheries,Department of Agriculture and Fisheries,"Property, Plant and Equipment",,,,Gatton Research Facility Fire Hydrant Upgrade,Toowoomba,650,N/A,650,N/A,-27.54477,152.33238
Agriculture and Fisheries,Department of Agriculture and Fisheries,"Property, Plant and Equipment",,,,Maroochy Research Facility Fire Hydrant Water Mains Upgrade,Sunshine Coast,354,108,246,N/A,-26.64275,152.93966
Agriculture and Fisheries,Department of Agriculture and Fisheries,"Property, Plant and Equipment",,,,Aquaculture Transformation,Moreton Bay - North,965,N/A,965,N/A,-27.05519,153.19594
Agriculture and Fisheries,Department of Agriculture and Fisheries,"Property, Plant and Equipment",,,,Brands Information System Replacement,Brisbane Inner City,"1,566",298,"1,268",N/A,-27.47351,153.02662
Agriculture and Fisheries,Department of Agriculture and Fisheries,"Property, Plant and Equipment",,,,Climate Initiative Program,"Brisbane - East,Brisbane - North,Brisbane - South,Brisbane - West,Brisbane Inner City,Ipswich,Logan - Beaudesert,Moreton Bay - North,Moreton Bay - South,Cairns,Darling Downs - Maranoa,Central Queensland,Gold Coast,Mackay - Isaac - Whitsunday,Queensland - Outback,Sunshine Coast,Toowoomba,Townsville,Wide Bay","3,000",N/A,"1,000","2,000",,
Agriculture and Fisheries,Department of Agriculture and Fisheries,"Property, Plant and Equipment",,,,Tor Street Toowoomba Office Upgrade,Toowoomba,250,N/A,250,N/A,-27.53512,151.92354
Agriculture and Fisheries,Department of Agriculture and Fisheries,"Property, Plant and Equipment",,,,Patrol Vessel Flinders Half Life Refit,Cairns,700,N/A,700,N/A,-16.94726,145.78652
Agriculture and Fisheries,Department of Agriculture and Fisheries,"Property, Plant and Equipment",,,,Tor Street Toowoomba Carbon Dioxide and Methane Isotopic Analyser,Toowoomba,534,267,267,N/A,-27.53512,151.92354
Agriculture and Fisheries,Department of Agriculture and Fisheries,"Property, Plant and Equipment",,,,Health and Food Science Precinct Steriliser Replacement,Brisbane - South,400,21,379,N/A,-27.56602,153.05951
Agriculture and Fisheries,Department of Agriculture and Fisheries,"Property, Plant and Equipment",,,,Hermitage Research Facility High Voltage Electrical System,Darling Downs - Maranoa,769,N/A,769,N/A,-28.124,152.0606
Agriculture and Fisheries,Department of Agriculture and Fisheries,"Property, Plant and Equipment",,,,Electric Vehicle Infrastructure Installation,"Brisbane - East,Brisbane - North,Brisbane - South,Brisbane - West,Brisbane Inner City,Ipswich,Logan - Beaudesert,Moreton Bay - North,Moreton Bay - South,Cairns,Darling Downs - Maranoa,Central Queensland,Gold Coast,Mackay - Isaac - Whitsunday,Queensland - Outback,Sunshine Coast,Toowoomba,Townsville,Wide Bay",750,350,400,N/A,,
Agriculture and Fisheries,Department of Agriculture and Fisheries,"Property, Plant and Equipment",,,,Yeppoon Rigid Hull Inflatable Boat,Central Queensland,344,N/A,344,N/A,-23.16371,150.78904
Agriculture and Fisheries,Department of Agriculture and Fisheries,"Property, Plant and Equipment",,,,Infrastructure for the Building Resilience to Manage Fruit Fly Project,Brisbane - East,"4,700","1,500","3,200",N/A,-27.5271444,153.2473306
Agriculture and Fisheries,Department of Agriculture and Fisheries,"Property, Plant and Equipment",,,,Kingaroy Research Facility Precision Plot Planter,Wide Bay,300,,300,,-26.581648,151.828445
Agriculture and Fisheries,Department of Agriculture and Fisheries,Capital Grant,,,,Young Animal Protection Society upgrade,Cairns,"1,000",900,100,N/A,-16.82324062,145.7062375
Agriculture and Fisheries,Queensland Racing Integrity Commission,"Property, Plant and Equipment",,,,Racing Science Centre laboratory technology upgrades,Brisbane Inner City,N/A,N/A,"3,250",Ongoing,-27.436377,153.047491
Agriculture and Fisheries,Queensland Racing Integrity Commission,"Property, Plant and Equipment",,,,Other asset replacement,"Brisbane - East,Brisbane - North,Brisbane - South,Brisbane - West,Brisbane Inner City,Ipswich,Logan - Beaudesert,Moreton Bay - North,Moreton Bay - South,Cairns,Darling Downs - Maranoa,Central Queensland,Gold Coast,Mackay - Isaac - Whitsunday,Queensland - Outback,Sunshine Coast,Toowoomba,Townsville,Wide Bay",N/A,N/A,97,Ongoing,,
Agriculture and Fisheries,Queensland Racing Integrity Commission,"Property, Plant and Equipment",,,,Registration and licensing environment ,"Brisbane - East,Brisbane - North,Brisbane - South,Brisbane - West,Brisbane Inner City,Ipswich,Logan - Beaudesert,Moreton Bay - North,Moreton Bay - South,Cairns,Darling Downs - Maranoa,Central Queensland,Gold Coast,Mackay - Isaac - Whitsunday,Queensland - Outback,Sunshine Coast,Toowoomba,Townsville,Wide Bay","4,629","3,979",650,N/A,,
"Child Safety, Seniors and Disability Services","Department of Child Safety, Seniors and Disability Services","Property, Plant and Equipment",Information Systems and Technology,,,Unify (Integrated Client Management System replacement) Program,"Brisbane - East,Brisbane - North,Brisbane - South,Brisbane - West,Brisbane Inner City,Ipswich,Logan - Beaudesert,Moreton Bay - North,Moreton Bay - South,Cairns,Darling Downs - Maranoa,Central Queensland,Gold Coast,Mackay - Isaac - Whitsunday,Queensland - Outback,Sunshine Coast,Toowoomba,Townsville,Wide Bay","90,259","88,377","1,882",N/A,,
"Child Safety, Seniors and Disability Services","Department of Child Safety, Seniors and Disability Services","Property, Plant and Equipment",Child and Family Services,,,Child and Family Services facilities,"Brisbane - East,Brisbane - North,Brisbane - South,Brisbane - West,Brisbane Inner City,Ipswich,Logan - Beaudesert,Moreton Bay - North,Moreton Bay - South,Cairns,Darling Downs - Maranoa,Central Queensland,Gold Coast,Mackay - Isaac - Whitsunday,Queensland - Outback,Sunshine Coast,Toowoomba,Townsville,Wide Bay",N/A,N/A,"5,510",Ongoing,,
"Child Safety, Seniors and Disability Services","Department of Child Safety, Seniors and Disability Services","Property, Plant and Equipment",Disability Services,,,Disability Services facilities,"Brisbane - East,Brisbane - North,Brisbane - South,Brisbane - West,Brisbane Inner City,Ipswich,Logan - Beaudesert,Moreton Bay - North,Moreton Bay - South,Cairns,Darling Downs - Maranoa,Central Queensland,Gold Coast,Mackay - Isaac - Whitsunday,Queensland - Outback,Sunshine Coast,Toowoomba,Townsville,Wide Bay",N/A,N/A,"2,130",Ongoing,,
"Child Safety, Seniors and Disability Services","Department of Child Safety, Seniors and Disability Services","Property, Plant and Equipment",Disability Services,,,Forensic Disability Services House 2 major repairs and upgrade works,Ipswich,"4,670",608,"4,062",N/A,-27.5853,152.9132
"Child Safety, Seniors and Disability Services","Department of Child Safety, Seniors and Disability Services","Property, Plant and Equipment",Information Systems and Technology,,,Information system enhancements,"Brisbane - East,Brisbane - North,Brisbane - South,Brisbane - West,Brisbane Inner City,Ipswich,Logan - Beaudesert,Moreton Bay - North,Moreton Bay - South,Cairns,Darling Downs - Maranoa,Central Queensland,Gold Coast,Mackay - Isaac - Whitsunday,Queensland - Outback,Sunshine Coast,Toowoomba,Townsville,Wide Bay",N/A,N/A,"7,368",Ongoing,,
"Child Safety, Seniors and Disability Services","Department of Child Safety, Seniors and Disability Services",Capital Grant,Disability Services,,,Helena's House,Brisbane - South,"2,000",450,"1,550",N/A,,
"Child Safety, Seniors and Disability Services","Department of Child Safety, Seniors and Disability Services",Capital Grant,Multicultural Affairs,,,Holocaust Museum,Brisbane Inner City,"3,500","3,110",390,N/A,,
"Child Safety, Seniors and Disability Services","Department of Child Safety, Seniors and Disability Services",Capital Grant,Disability Services,,,AEIOU Foundation - Infrastructure Projects,"Brisbane - East,Brisbane - North,Brisbane - South,Brisbane - West,Brisbane Inner City,Ipswich,Logan - Beaudesert,Moreton Bay - North,Moreton Bay - South,Cairns,Darling Downs - Maranoa,Central Queensland,Gold Coast,Mackay - Isaac - Whitsunday,Queensland - Outback,Sunshine Coast,Toowoomba,Townsville,Wide Bay","6,500",N/A,"6,000",500,,
Education,Department of Education,"Property, Plant and Equipment",Plant and Equipment,,,Education plant and equipment,"Brisbane - East,Brisbane - North,Brisbane - South,Brisbane - West,Brisbane Inner City,Ipswich,Logan - Beaudesert,Moreton Bay - North,Moreton Bay - South,Cairns,Darling Downs - Maranoa,Central Queensland,Gold Coast,Mackay - Isaac - Whitsunday,Queensland - Outback,Sunshine Coast,Toowoomba,Townsville,Wide Bay",N/A,N/A,"82,028",Ongoing,,
Education,Department of Education,"Property, Plant and Equipment",Capital Works Program,,,Bwgcolman Community School - Administration upgrades,Townsville,"8,802","4,405","2,304","2,093",-18.736204,146.578199
Education,Department of Education,"Property, Plant and Equipment",Capital Works Program,,,Gladstone Central State School - New hall facility  ,Central Queensland,"13,500","11,700","1,800",N/A,-23.841864,151.257639
Education,Department of Education,"Property, Plant and Equipment",Capital Works Program,,,Kilcoy State High School - New hall facility  ,Moreton Bay - North,"10,835","8,855","1,980",N/A,-26.93974,152.567279
Education,Department of Education,"Property, Plant and Equipment",Capital Works Program,,,Redlynch State College - New hall facility,Cairns,"12,842",297,"6,622","5,923",-16.909266,145.695815
Education,Department of Education,"Property, Plant and Equipment",Capital Works Program,,,Trinity Bay State High School - New hall facility  ,Cairns,"14,832","6,562","4,390","3,880",-16.9238,145.7524
Education,Department of Education,"Property, Plant and Equipment",Capital Works Program,,,Darling Point Special School - Additional classrooms,Brisbane - East,"27,600","19,911","7,689",N/A,-27.447843,153.186878
Education,Department of Education,"Property, Plant and Equipment",Capital Works Program,,,Moranbah East State School - Additional classrooms,Mackay - Isaac - Whitsunday,"10,762","3,160","3,002","4,600",-22.005128,148.063356
Education,Department of Education,"Property, Plant and Equipment",Capital Works Program,,,Burnside State High School - New hall facility  ,Sunshine Coast,"15,657","8,849","5,008","1,800",-26.630401,152.947268
Education,Department of Education,"Property, Plant and Equipment",Capital Works Program,,,Nerang State High School - Upgrade existing hall facility,Gold Coast,"8,937",173,"6,336","2,428",-28.000554,153.327896
Education,Department of Education,"Property, Plant and Equipment",Capital Works Program,,,Oakleigh State School - New hall facility  ,Brisbane Inner City,"8,730","1,290","7,440",N/A,-27.436517,152.985892
Education,Department of Education,"Property, Plant and Equipment",Capital Works Program,,,Wilston State School - New hall facility  ,Brisbane Inner City,"17,575","5,340","8,375","3,860",-27.4289,153.0151
Education,Department of Education,"Property, Plant and Equipment",Capital Works Program,,,Land acquisition,"Brisbane - East,Brisbane - North,Brisbane - South,Brisbane - West,Brisbane Inner City,Ipswich,Logan - Beaudesert,Moreton Bay - North,Moreton Bay - South,Cairns,Darling Downs - Maranoa,Central Queensland,Gold Coast,Mackay - Isaac - Whitsunday,Queensland - Outback,Sunshine Coast,Toowoomba,Townsville,Wide Bay",N/A,N/A,"144,225",Ongoing,,
Education,Department of Education,"Property, Plant and Equipment",Capital Works Program,,,School infrastructure enhancement,"Brisbane - East,Brisbane - North,Brisbane - South,Brisbane - West,Brisbane Inner City,Ipswich,Logan - Beaudesert,Moreton Bay - North,Moreton Bay - South,Cairns,Darling Downs - Maranoa,Central Queensland,Gold Coast,Mackay - Isaac - Whitsunday,Queensland - Outback,Sunshine Coast,Toowoomba,Townsville,Wide Bay",N/A,N/A,"20,000",Ongoing,,
Education,Department of Education,"Property, Plant and Equipment",Capital Works Program,,,General and minor works - Early Childhood Education and Care,"Brisbane - East,Brisbane - North,Brisbane - South,Brisbane - West,Brisbane Inner City,Ipswich,Logan - Beaudesert,Moreton Bay - North,Moreton Bay - South,Cairns,Darling Downs - Maranoa,Central Queensland,Gold Coast,Mackay - Isaac - Whitsunday,Queensland - Outback,Sunshine Coast,Toowoomba,Townsville,Wide Bay",N/A,N/A,"29,156",Ongoing,,
Education,Department of Education,"Property, Plant and Equipment",Capital Works Program,,,Indooroopilly State School - Administration upgrades,Brisbane - West,"22,045",604,"6,885","14,556",-27.500369,152.965494
Education,Department of Education,"Property, Plant and Equipment",Capital Works Program,,,Toolooa State High School - Additional classrooms,Central Queensland,"14,193","4,993","9,200",N/A,-23.873238,151.270448
Education,Department of Education,"Property, Plant and Equipment",Capital Works Program,,,Wishart State School - Additional classrooms,Brisbane - South,"10,202","6,272","3,930",N/A,-27.549592,153.094536
Education,Department of Education,"Property, Plant and Equipment",Capital Works Program,,,General and Minor Works - Education,"Brisbane - East,Brisbane - North,Brisbane - South,Brisbane - West,Brisbane Inner City,Ipswich,Logan - Beaudesert,Moreton Bay - North,Moreton Bay - South,Cairns,Darling Downs - Maranoa,Central Queensland,Gold Coast,Mackay - Isaac - Whitsunday,Queensland - Outback,Sunshine Coast,Toowoomba,Townsville,Wide Bay",N/A,N/A,"143,882",Ongoing,,
Education,Department of Education,"Property, Plant and Equipment",Capital Works Program,,,School Subsidy Scheme,"Brisbane - East,Brisbane - North,Brisbane - South,Brisbane - West,Brisbane Inner City,Ipswich,Logan - Beaudesert,Moreton Bay - North,Moreton Bay - South,Cairns,Darling Downs - Maranoa,Central Queensland,Gold Coast,Mackay - Isaac - Whitsunday,Queensland - Outback,Sunshine Coast,Toowoomba,Townsville,Wide Bay",N/A,N/A,"12,740",Ongoing,,
Education,Department of Education,"Property, Plant and Equipment",Capital Works Program,,,Shovel Ready Program - Various minor works,"Brisbane - East,Brisbane - North,Brisbane - South,Brisbane - West,Brisbane Inner City,Ipswich,Logan - Beaudesert,Moreton Bay - North,Moreton Bay - South,Cairns,Darling Downs - Maranoa,Central Queensland,Gold Coast,Mackay - Isaac - Whitsunday,Queensland - Outback,Sunshine Coast,Toowoomba,Townsville,Wide Bay","48,025","45,900","2,125",N/A,,
Education,Department of Education,"Property, Plant and Equipment",Capital Works Program,,,Deception Bay State High School - Additional classrooms,Moreton Bay - North,"10,839","6,326","4,513",N/A,-27.199998,153.0305
Education,Department of Education,"Property, Plant and Equipment",Capital Works Program,,,Moranbah State High School - Additional classrooms,Mackay - Isaac - Whitsunday,"12,277","4,181","6,256","1,840",-22.000422,148.059443
Education,Department of Education,"Property, Plant and Equipment",Capital Works Program,,,Rockhampton Special School - Additional classrooms,Central Queensland,"15,296","11,277","4,019",N/A,-23.382714,150.511679
Education,Department of Education,"Property, Plant and Equipment",Capital Works Program,,,Kenmore South State School - Additional classrooms,Brisbane - West,"14,286","7,777","6,509",N/A,-27.518966,152.943789
Education,Department of Education,"Property, Plant and Equipment",Capital Works Program,,,Discrete communities renewal,"Brisbane - East,Brisbane - North,Brisbane - South,Brisbane - West,Brisbane Inner City,Ipswich,Logan - Beaudesert,Moreton Bay - North,Moreton Bay - South,Cairns,Darling Downs - Maranoa,Central Queensland,Gold Coast,Mackay - Isaac - Whitsunday,Queensland - Outback,Sunshine Coast,Toowoomba,Townsville,Wide Bay","36,680","10,303","14,239","12,138",,
Education,Department of Education,"Property, Plant and Equipment",Capital Works Program,,,School playground and tuckshop upgrades,"Brisbane - East,Brisbane - North,Brisbane - South,Brisbane - West,Brisbane Inner City,Ipswich,Logan - Beaudesert,Moreton Bay - North,Moreton Bay - South,Cairns,Darling Downs - Maranoa,Central Queensland,Gold Coast,Mackay - Isaac - Whitsunday,Queensland - Outback,Sunshine Coast,Toowoomba,Townsville,Wide Bay","102,296","9,555","26,219","66,522",,
Education,Department of Education,"Property, Plant and Equipment",Capital Works Program,,,Go for Gold (School Sports Infrastructure),"Brisbane - East,Brisbane - North,Brisbane - South,Brisbane - West,Brisbane Inner City,Ipswich,Logan - Beaudesert,Moreton Bay - North,Moreton Bay - South,Cairns,Darling Downs - Maranoa,Central Queensland,Gold Coast,Mackay - Isaac - Whitsunday,Queensland - Outback,Sunshine Coast,Toowoomba,Townsville,Wide Bay","71,503","4,715","29,250","37,538",,
Education,Department of Education,"Property, Plant and Equipment",Capital Works Program,,,Special school renewal,"Brisbane - East,Brisbane - North,Brisbane - South,Brisbane - West,Brisbane Inner City,Ipswich,Logan - Beaudesert,Moreton Bay - North,Moreton Bay - South,Cairns,Darling Downs - Maranoa,Central Queensland,Gold Coast,Mackay - Isaac - Whitsunday,Queensland - Outback,Sunshine Coast,Toowoomba,Townsville,Wide Bay","166,812","18,278","38,640","109,894",,
Education,Department of Education,"Property, Plant and Equipment",Capital Works Program,,,Bremer State High School - Additional specialist classrooms,Ipswich,"9,647","2,914","4,408","2,325",-27.633359,152.755332
Education,Department of Education,"Property, Plant and Equipment",Capital Works Program,,,Gladstone State High School - Additional specialist classrooms,Central Queensland,"22,500","4,304","12,196","6,000",-23.851617,151.25087
Education,Department of Education,"Property, Plant and Equipment",Capital Works Program,,,Kepnock State High School - Additional specialist classrooms,Wide Bay,"14,850","7,764","3,000","4,086",-24.876217,152.377267
Education,Department of Education,"Property, Plant and Equipment",Capital Works Program,,,Bray Park State High School - Additional classrooms,Moreton Bay - South,"20,580","1,935","14,965","3,680",-27.2999,152.962
Education,Department of Education,"Property, Plant and Equipment",Capital Works Program,,,Everleigh State School - New primary school,Logan - Beaudesert,"54,813","44,916","6,144","3,753",-27.73857,152.99415
Education,Department of Education,"Property, Plant and Equipment",Capital Works Program,,,Palmview State Secondary College - New secondary school,Sunshine Coast,"99,534","52,350","14,728","32,456",-26.73947,153.07089
Education,Department of Education,"Property, Plant and Equipment",Capital Works Program,,,Ripley Central State School - New primary school,Ipswich,"64,107","51,854","9,438","2,815",-27.67236,152.77879
Education,Department of Education,"Property, Plant and Equipment",Capital Works Program,,,New primary school in Bellbird Park,Ipswich,"77,636","67,794","3,485","6,357",-27.637489,152.878067
Education,Department of Education,"Property, Plant and Equipment",Capital Works Program,,,Scenic Shores State School - New primary school,Brisbane - East,"63,967","54,996","7,735","1,236",-27.666007,153.304002
Education,Department of Education,"Property, Plant and Equipment",Capital Works Program,,,Clifton State High School - Amenities upgrades,Darling Downs - Maranoa,"2,728",558,"1,642",528,-27.93398,151.916814
Education,Department of Education,"Property, Plant and Equipment",Capital Works Program,,,Millmerran State School - Amenities upgrades,Darling Downs - Maranoa,"3,127",798,"1,689",640,-27.878235,151.265453
Education,Department of Education,"Property, Plant and Equipment",Capital Works Program,,,One Mile State School - Amenities upgrades,Wide Bay,"1,600",N/A,"1,600",N/A,-26.19931,152.675322
Education,Department of Education,"Property, Plant and Equipment",Capital Works Program,,,Bwgcolman Community School - New home economics building,Townsville,"7,740","3,070","4,670",N/A,-18.736204,146.578199
Education,Department of Education,"Property, Plant and Equipment",Capital Works Program,,,School Upgrade Fund,"Brisbane - East,Brisbane - North,Brisbane - South,Brisbane - West,Brisbane Inner City,Ipswich,Logan - Beaudesert,Moreton Bay - North,Moreton Bay - South,Cairns,Darling Downs - Maranoa,Central Queensland,Gold Coast,Mackay - Isaac - Whitsunday,Queensland - Outback,Sunshine Coast,Toowoomba,Townsville,Wide Bay","46,387","8,387","15,000","23,000",,
Education,Department of Education,"Property, Plant and Equipment",Capital Works Program,,,New schools,"Brisbane - East,Brisbane - North,Brisbane - South,Brisbane - West,Brisbane Inner City,Ipswich,Logan - Beaudesert,Moreton Bay - North,Moreton Bay - South,Cairns,Darling Downs - Maranoa,Central Queensland,Gold Coast,Mackay - Isaac - Whitsunday,Queensland - Outback,Sunshine Coast,Toowoomba,Townsville,Wide Bay","300,752","5,816","52,228","242,708",,
Education,Department of Education,"Property, Plant and Equipment",Capital Works Program,,,New secondary school in Collingwood Park,Ipswich,"115,467","34,929","40,696","39,842",-27.623611,152.863889
Education,Department of Education,"Property, Plant and Equipment",Capital Works Program,,,New primary school in Park Ridge,Logan - Beaudesert,"84,337","44,340","22,240","17,757",-27.704167,153.083611
Education,Department of Education,"Property, Plant and Equipment",Capital Works Program,,,Sarina State High School - Refurbish learning space,Mackay - Isaac - Whitsunday,"5,568",620,"4,948",N/A,-21.420889,149.213698
Education,Department of Education,"Property, Plant and Equipment",Capital Works Program,,,Growth projects in Brisbane and Redlands,"Brisbane - East,Brisbane - North,Brisbane - South,Brisbane - West,Brisbane Inner City","179,735","11,202","96,230","72,303",,
Education,Department of Education,"Property, Plant and Equipment",Capital Works Program,,,Growth projects in Central Queensland,Central Queensland,"17,783","2,864","10,101","4,818",,
Education,Department of Education,"Property, Plant and Equipment",Capital Works Program,,,Growth projects in Far North Queensland,Cairns,"13,630","1,273","8,847","3,510",,
Education,Department of Education,"Property, Plant and Equipment",Capital Works Program,,,Growth projects in Gold Coast,Gold Coast,"65,729","1,958","43,000","20,771",,
Education,Department of Education,"Property, Plant and Equipment",Capital Works Program,,,Growth projects in Ipswich,Ipswich,"124,451","4,601","42,511","77,339",,
Education,Department of Education,"Property, Plant and Equipment",Capital Works Program,,,Growth projects in Logan,Logan - Beaudesert,"36,001",933,"18,162","16,906",,
Education,Department of Education,"Property, Plant and Equipment",Capital Works Program,,,Growth projects in Moreton Bay,"Moreton Bay - North,Moreton Bay - South","20,204","1,777","14,967","3,460",,
Education,Department of Education,"Property, Plant and Equipment",Capital Works Program,,,Growth projects in Queensland Outback,Queensland - Outback,"14,385",438,"3,188","10,759",,
Education,Department of Education,"Property, Plant and Equipment",Capital Works Program,,,Growth projects in Wide Bay,Wide Bay,"14,975","1,079","5,475","8,421",,
Education,Department of Education,"Property, Plant and Equipment",Capital Works Program,,,Hall projects in Brisbane and Redlands,"Brisbane Inner City,Brisbane - South,Brisbane - West","49,308",437,"9,425","39,446",,
Education,Department of Education,"Property, Plant and Equipment",Capital Works Program,,,Hall projects in Darling Downs - Maranoa,Darling Downs - Maranoa,"20,792",360,"7,354","13,078",,
Education,Department of Education,"Property, Plant and Equipment",Capital Works Program,,,Hall projects in Far North Queensland,Cairns,"11,632",299,"3,510","7,823",,
Education,Department of Education,"Property, Plant and Equipment",Capital Works Program,,,Hall projects in Gold Coast,Gold Coast,"9,977",177,"3,527","6,273",,
Education,Department of Education,"Property, Plant and Equipment",Capital Works Program,,,Hall projects in Ipswich,Ipswich,"16,702",322,"5,400","10,980",,
Education,Department of Education,"Property, Plant and Equipment",Capital Works Program,,,Hall projects in Logan,Logan - Beaudesert,"34,571",416,"12,331","21,824",,
Education,Department of Education,"Property, Plant and Equipment",Capital Works Program,,,Hall projects in Mackay - Whitsunday,Mackay - Isaac - Whitsunday,"17,226",180,"4,515","12,531",,
Education,Department of Education,"Property, Plant and Equipment",Capital Works Program,,,Yandina State School - New hall facility  ,Sunshine Coast,"11,973","1,012","6,573","4,388",-26.55221,152.957922
Education,Department of Education,"Property, Plant and Equipment",Capital Works Program,,,Youth Engagement,"Brisbane - East,Brisbane - North,Brisbane - South,Brisbane - West,Brisbane Inner City,Ipswich,Logan - Beaudesert,Moreton Bay - North,Moreton Bay - South,Cairns,Darling Downs - Maranoa,Central Queensland,Gold Coast,Mackay - Isaac - Whitsunday,Queensland - Outback,Sunshine Coast,Toowoomba,Townsville,Wide Bay","27,875",N/A,"14,750","13,125",,
Education,Department of Education,"Property, Plant and Equipment",Capital Works Program,,,Hall projects in Townsville,Townsville,"31,685","1,118","14,307","16,260",,
Education,Department of Education,"Property, Plant and Equipment",Capital Works Program,,,Griffin State School - Additional classrooms,Moreton Bay - South,"22,990","3,284","16,935","2,771",-27.256667,153.024444
Education,Department of Education,"Property, Plant and Equipment",Capital Works Program,,,Claremont Special School - Additional classrooms,Ipswich,"22,264","2,338","15,326","4,600",-27.629534,152.787678
Education,Department of Education,"Property, Plant and Equipment",Capital Works Program,,,Proserpine State School - Carpark upgrade,Mackay - Isaac - Whitsunday,"1,135",34,"1,101",N/A,-20.409003,148.58239
Education,Department of Education,"Property, Plant and Equipment",Capital Works Program,,,Mirani State High School - Refurbish learning space,Mackay - Isaac - Whitsunday,"1,892",172,"1,720",N/A,-21.157627,148.862371
Education,Department of Education,"Property, Plant and Equipment",Capital Works Program,,,Cunnamulla P-12 State School - Amenities upgrades,Queensland - Outback,640,N/A,640,N/A,-28.071136,145.679373
Education,Department of Education,"Property, Plant and Equipment",Capital Works Program,,,Veresdale Scrub State School - Refurbish learning space,Logan - Beaudesert,"1,290",N/A,"1,290",N/A,-27.921471,153.017658
Education,Department of Education,"Property, Plant and Equipment",Capital Works Program,,,Flood Resilience,"Brisbane - East,Brisbane - North,Brisbane - South,Brisbane - West,Brisbane Inner City,Ipswich,Logan - Beaudesert,Moreton Bay - North,Moreton Bay - South,Cairns,Darling Downs - Maranoa,Central Queensland,Gold Coast,Mackay - Isaac - Whitsunday,Queensland - Outback,Sunshine Coast,Toowoomba,Townsville,Wide Bay","50,000",750,"5,950","43,300",,
Education,Department of Education,"Property, Plant and Equipment",Capital Works Program,,,Northern Peninsula Area State College - Senior Campus - Site renewal and amenities upgrade,Queensland - Outback,"1,500",182,"1,318",N/A,-10.895205,142.385802
Education,Department of Education,"Property, Plant and Equipment",Capital Works Program,,,Queensland Pathways State College - Townsville Campus - Site renewal,Townsville,800,518,282,N/A,-19.28528,146.780555
Education,Department of Education,"Property, Plant and Equipment",Capital Works Program,,,Springfield Lakes State School - Site renewal,Ipswich,"1,040",620,420,N/A,-27.670545,152.922179
Education,Department of Education,"Property, Plant and Equipment",Capital Works Program,,,Cavendish Road State High School - Site renewal,Brisbane - South,420,N/A,420,N/A,-27.516824,153.072984
Education,Department of Education,"Property, Plant and Equipment",Capital Works Program,,,Springfield Central State School - Site renewal,Ipswich,800,280,520,N/A,-27.697078,152.906554
Education,Department of Education,"Property, Plant and Equipment",Capital Works Program,,,Miami State School - Site renewal,Gold Coast,360,N/A,360,N/A,-28.059638,153.426091
Education,Department of Education,"Property, Plant and Equipment",Capital Works Program,,,Indooroopilly State School - Site renewal,Brisbane - West,440,80,360,N/A,-27.500369,152.965494
Education,Department of Education,"Property, Plant and Equipment",Capital Works Program,,,Tagai State College - Thursday Island Primary Campus - Amenities upgrades,Queensland - Outback,800,480,320,N/A,-10.580038,142.222233
Education,Department of Education,"Property, Plant and Equipment",Capital Works Program,,,Laura State School - Amenities upgrades,Queensland - Outback,360,60,300,N/A,-15.557594,144.446925
Education,Department of Education,"Property, Plant and Equipment",Capital Works Program,,,Western Cape College - Mapoon - Amenities upgrades,Queensland - Outback,640,152,488,N/A,-12.016118,141.899972
Education,Department of Education,"Property, Plant and Equipment",Capital Works Program,,,Pialba State School - Amenities upgrades,Wide Bay,560,N/A,560,N/A,-25.27938,152.833396
Education,Department of Education,"Property, Plant and Equipment",Capital Works Program,,,Miriam Vale State School - Amenities upgrades,Central Queensland,308,N/A,308,N/A,-24.329777,151.561627
Education,Department of Education,"Property, Plant and Equipment",Capital Works Program,,,Mount Gravatt East State School - Carpark upgrade,Brisbane - South,"1,290",91,"1,199",N/A,-27.533752,153.094318
Education,Department of Education,"Property, Plant and Equipment",Capital Works Program,,,Morningside State School - Amenities upgrades,Brisbane Inner City,720,N/A,720,N/A,-27.46422,153.066999
Education,Department of Education,"Property, Plant and Equipment",Capital Works Program,,,Beechmont State School - Amenities upgrades,Gold Coast,480,N/A,480,N/A,-28.12486,153.185673
Education,Department of Education,"Property, Plant and Equipment",Capital Works Program,,,Kalbar State School - Amenities upgrades,Ipswich,320,12,308,N/A,-27.942164,152.623878
Education,Department of Education,"Property, Plant and Equipment",Capital Works Program,,,Koumala State School - Amenities upgrades,Mackay - Isaac - Whitsunday,731,N/A,731,N/A,-21.607081,149.243381
Education,Department of Education,"Property, Plant and Equipment",Capital Works Program,,,Biggenden State School - Amenities upgrades,Wide Bay,600,N/A,600,N/A,-25.510709,152.047434
Education,Department of Education,"Property, Plant and Equipment",Capital Works Program,,,Yarrabah State School - Secondary Campus - Amenities upgrades,Cairns,640,N/A,640,N/A,-16.928849,145.874633
Education,Department of Education,"Property, Plant and Equipment",Capital Works Program,,,Swayneville State School - Carpark upgrade,Mackay - Isaac - Whitsunday,344,65,279,N/A,-21.472625,149.144055
Education,Department of Education,"Property, Plant and Equipment",Capital Works Program,,,Blackwater State High School - Amenities upgrades,Central Queensland,600,N/A,600,N/A,-23.57248,148.88274
Education,Department of Education,"Property, Plant and Equipment",Capital Works Program,,,Upper Brookfield State School - Amenities upgrades,Brisbane - West,960,N/A,960,N/A,-27.478017,152.869106
Education,Department of Education,"Property, Plant and Equipment",Capital Works Program,,,Mount Gravatt State High School - Amenities upgrades,Brisbane - South,720,N/A,720,N/A,-27.535011,153.073541
Education,Department of Education,"Property, Plant and Equipment",Capital Works Program,,,Ipswich State High School - Amenities upgrades,Ipswich,840,N/A,840,N/A,-27.59107,152.746452
Education,Department of Education,"Property, Plant and Equipment",Capital Works Program,,,Charters Towers State High School - Upgrade sports courts,Townsville,430,43,387,N/A,-20.080196,146.258473
Education,Department of Education,"Property, Plant and Equipment",Capital Works Program,,,Aitkenvale State School - Refurbish learning space,Townsville,387,34,353,N/A,-19.296785,146.763058
Education,Department of Education,"Property, Plant and Equipment",Capital Works Program,,,Rathdowney State School - Amenities upgrades,Logan - Beaudesert,"1,200",N/A,"1,200",N/A,-28.215634,152.860509
Education,Department of Education,"Property, Plant and Equipment",Capital Works Program,,,Annandale State School - Refurbish learning space,Townsville,559,24,535,N/A,-19.315285,146.778441
Education,Department of Education,"Property, Plant and Equipment",Capital Works Program,,,Charters Towers Central State School - Refurbish learning space,Townsville,430,43,387,N/A,-20.080199,146.263198
Education,Department of Education,"Property, Plant and Equipment",Capital Works Program,,,Collinsville State High School - Refurbish learning space,Mackay - Isaac - Whitsunday,559,301,258,N/A,-20.548484,147.834688
Education,Department of Education,"Property, Plant and Equipment",Capital Works Program,,,Cranbrook State School - Refurbish learning space,Townsville,344,34,310,N/A,-19.3092,146.753855
Education,Department of Education,"Property, Plant and Equipment",Capital Works Program,,,The Willows State School - Refurbish learning space,Townsville,559,43,516,N/A,-19.305133,146.722516
Education,Department of Education,"Property, Plant and Equipment",Capital Works Program,,,Townsville South State School - Refurbish learning space,Townsville,387,26,361,N/A,-19.262946,146.82664
Education,Department of Education,"Property, Plant and Equipment",Capital Works Program,,,Mornington Island State School - Refurbish learning space,Queensland - Outback,568,N/A,568,N/A,-16.666363,139.182596
Education,Department of Education,"Property, Plant and Equipment",Capital Works Program,,,Mount Isa Central State School - Refurbish learning space,Queensland - Outback,568,43,525,N/A,-20.723255,139.491988
Education,Department of Education,"Property, Plant and Equipment",Capital Works Program,,,Mundingburra State School - Refurbish learning space,Townsville,568,52,516,N/A,-19.294541,146.789636
Education,Department of Education,"Property, Plant and Equipment",Capital Works Program,,,Richmond State School - Refurbish learning space,Queensland - Outback,568,26,542,N/A,-20.734145,143.143081
Education,Department of Education,"Property, Plant and Equipment",Capital Works Program,,,Cleveland District State High School - Refurbish auditorium building,Brisbane - East,"1,978","1,507",471,N/A,-27.529881,153.260297
Education,Department of Education,"Property, Plant and Equipment",Capital Works Program,,,Kilkivan State School - Covered area over courts,Wide Bay,849,428,421,N/A,-26.087733,152.241373
Education,Department of Education,"Property, Plant and Equipment",Capital Works Program,,,Currimundi State School - Refurbish learning space,Sunshine Coast,860,N/A,860,N/A,-26.777613,153.135518
Education,Department of Education,"Property, Plant and Equipment",Capital Works Program,,,Coorparoo State School - Refurbish learning space,Brisbane - South,774,N/A,774,N/A,-27.494004,153.06059
Education,Department of Education,"Property, Plant and Equipment",Capital Works Program,,,Pimlico State High School - Refurbishment of specialist classrooms and water reticulation upgrade,Townsville,953,100,853,N/A,-19.288734,146.782657
Education,Department of Education,"Property, Plant and Equipment",Capital Works Program,,,Goondiwindi State High School - Additional specialist classrooms,Darling Downs - Maranoa,673,420,253,N/A,-28.537537,150.297467
Education,Department of Education,"Property, Plant and Equipment",Capital Works Program,,,Inglewood State School - Additional specialist classrooms,Darling Downs - Maranoa,741,401,340,N/A,-28.416159,151.07706
Education,Department of Education,"Property, Plant and Equipment",Capital Works Program,,,Wowan State School - Amenities upgrades,Central Queensland,890,623,267,N/A,-23.910494,150.193801
Education,Department of Education,"Property, Plant and Equipment",Capital Works Program,,,Growth Projects in Darling Downs - Maranoa,Darling Downs - Maranoa,"1,670",N/A,835,835,,
Education,Department of Education,"Property, Plant and Equipment",Capital Works Program,,,Growth Projects in Sunshine Coast,Sunshine Coast,"2,250",N/A,"1,125","1,125",,
Education,Department of Education,"Property, Plant and Equipment",Capital Works Program,,,Gatton State School - Security fence,Darling Downs - Maranoa,930,N/A,930,N/A,-27.560199,152.278366
Education,Department of Education,"Property, Plant and Equipment",Capital Works Program,,,Lockyer District State High School - Security fence,Darling Downs - Maranoa,"1,116",N/A,"1,116",N/A,-27.566932,152.276977
Education,Department of Education,"Property, Plant and Equipment",Capital Works Program,,,Indooroopilly State High School - Security fence,Brisbane - West,"1,209",N/A,"1,209",N/A,-27.500587,152.984077
Education,Department of Education,"Property, Plant and Equipment",Capital Works Program,,,Woodcrest State College - Security fence,Ipswich,"1,674",N/A,"1,674",N/A,-27.657283,152.918473
Education,Department of Education,"Property, Plant and Equipment",Capital Works Program,,,Marburg State School - Amenities upgrades,Ipswich,560,N/A,560,N/A,-27.56242,152.59393
Education,Department of Education,"Property, Plant and Equipment",Capital Works Program,,,Tagai State College - Thursday Island Secondary - Amenities upgrades,Queensland - Outback,860,N/A,860,N/A,-10.577461,142.213832
Education,Department of Education,"Property, Plant and Equipment",Capital Works Program,,,Seville Road State School - Refurbish learning space,Brisbane - South,"1,376",N/A,"1,376",N/A,-27.525584,153.072861
Education,Department of Education,"Property, Plant and Equipment",Capital Works Program,,,Buddina State School - Security fence,Sunshine Coast,930,N/A,930,N/A,-26.702191,153.133162
Education,Department of Education,"Property, Plant and Equipment",Capital Works Program,,,James Nash State High School - Security fence,Wide Bay,"1,116",N/A,"1,116",N/A,-26.175895,152.656069
Education,Department of Education,"Property, Plant and Equipment",Capital Works Program,,,Gordonvale State High School - Security fence,Cairns,"1,116",N/A,"1,116",N/A,-17.088716,145.778389
Education,Department of Education,"Property, Plant and Equipment",Capital Works Program,,,Ipswich East State School - Security fence,Ipswich,930,N/A,930,N/A,-27.606886,152.776929
Education,Department of Education,"Property, Plant and Equipment",Capital Works Program,,,Happy Valley State School - Security fence,Queensland - Outback,930,N/A,930,N/A,-20.744912,139.491008
Education,Department of Education,"Property, Plant and Equipment",Capital Works Program,,,William Ross State High School - Security fence,Townsville,"1,116",N/A,"1,116",N/A,-19.314852,146.800571
Education,Department of Education,"Property, Plant and Equipment",Capital Works Program,,,Hilder Road State School - Security fence,Brisbane - West,930,N/A,930,N/A,-27.436814,152.937219
Education,Department of Education,"Property, Plant and Equipment",Capital Works Program,,,Greenlands State School - Upgrade water reticulation,Darling Downs - Maranoa,275,N/A,275,N/A,-28.660808,151.827463
Education,Department of Education,"Property, Plant and Equipment",Capital Works Program,,,Barambah Environmental Education Centre - Upgrade water reticulation,Wide Bay,275,N/A,275,N/A,-26.341398,152.328958
Education,Department of Education,"Property, Plant and Equipment",Capital Works Program,,,Tagai State College - Kubin Campus - Upgrade water reticulation,Queensland - Outback,550,N/A,550,N/A,-10.23332,142.218622
Education,Department of Education,"Property, Plant and Equipment",Capital Works Program,,,Tagai State College - St Pauls Campus - Upgrade water reticulation,Queensland - Outback,550,N/A,550,N/A,-10.187697,142.334075
Education,Department of Education,"Property, Plant and Equipment",Capital Works Program,,,Tagai State College - Yam Island Campus - Upgrade water reticulation,Queensland - Outback,550,N/A,550,N/A,-9.899529,142.769695
Education,Department of Education,"Property, Plant and Equipment",Capital Works Program,,,Tagai State College - Mabuiag Island Campus - Upgrade water reticulation,Queensland - Outback,550,N/A,550,N/A,-9.954659,142.189512
Education,Department of Education,"Property, Plant and Equipment",Capital Works Program,,,Tagai State College - Poruma Campus - Upgrade water reticulation,Queensland - Outback,550,N/A,550,N/A,-10.0503,143.064194
Education,Department of Education,"Property, Plant and Equipment",Capital Works Program,,,Tagai State College - Saibai Island Campus - Upgrade water reticulation,Queensland - Outback,550,N/A,550,N/A,-9.379417,142.623994
Education,Department of Education,"Property, Plant and Equipment",Capital Works Program,,,Hopevale Campus of Cape York Aboriginal Australian Academy - Refurbish learning space,Queensland - Outback,"1,462",N/A,"1,462",N/A,-15.295258,145.108091
Education,Department of Education,"Property, Plant and Equipment",Capital Works Program,,,Taranganba State School - Refurbish learning space,Central Queensland,602,N/A,602,N/A,-23.154601,150.754215
Education,Department of Education,"Property, Plant and Equipment",Capital Works Program,,,Warwick State High School - Amenities upgrades,Darling Downs - Maranoa,602,N/A,602,N/A,-28.210316,152.03353
Education,Department of Education,Capital Grant,,,,Capital grants - Education,"Brisbane - East,Brisbane - North,Brisbane - South,Brisbane - West,Brisbane Inner City,Ipswich,Logan - Beaudesert,Moreton Bay - North,Moreton Bay - South,Cairns,Darling Downs - Maranoa,Central Queensland,Gold Coast,Mackay - Isaac - Whitsunday,Queensland - Outback,Sunshine Coast,Toowoomba,Townsville,Wide Bay",N/A,N/A,"137,893",Ongoing,,
Education,Queensland Curriculum and Assessment Authority,"Property, Plant and Equipment",,,,Plant and Equipment - Queensland Curriculum and Assessment Authority,"Brisbane - East,Brisbane - North,Brisbane - South,Brisbane - West,Brisbane Inner City,Ipswich,Logan - Beaudesert,Moreton Bay - North,Moreton Bay - South,Cairns,Darling Downs - Maranoa,Central Queensland,Gold Coast,Mackay - Isaac - Whitsunday,Queensland - Outback,Sunshine Coast,Toowoomba,Townsville,Wide Bay",N/A,N/A,"1,200",Ongoing,,
"Employment, Small Business and Training","Department of Employment, Small Business and Training","Property, Plant and Equipment",Equipping TAFE for Our Future,,,Eagle Farm Robotics and Advanced Manufacturing Centre,Brisbane - North,"40,020","28,096","11,924",N/A,-27.432711,153.079971
"Employment, Small Business and Training","Department of Employment, Small Business and Training","Property, Plant and Equipment",,,,Annual Training Infrastructure Program,"Brisbane - East,Brisbane - North,Brisbane - South,Brisbane - West,Brisbane Inner City,Ipswich,Logan - Beaudesert,Moreton Bay - North,Moreton Bay - South,Cairns,Darling Downs - Maranoa,Central Queensland,Gold Coast,Mackay - Isaac - Whitsunday,Queensland - Outback,Sunshine Coast,Toowoomba,Townsville,Wide Bay",N/A,N/A,"41,417",Ongoing,,
"Employment, Small Business and Training","Department of Employment, Small Business and Training","Property, Plant and Equipment",TAFE Technology Fund,,,Pimlico visual arts precinct,Townsville,"4,500",700,"3,800",N/A,-19.2878,146.78009
"Employment, Small Business and Training","Department of Employment, Small Business and Training","Property, Plant and Equipment",TAFE Technology Fund,,,Loganlea clinical skills laboratory,Logan - Beaudesert,"3,800",284,"3,516",N/A,-27.66993,153.14532
"Employment, Small Business and Training","Department of Employment, Small Business and Training","Property, Plant and Equipment",,,,Great Barrier Reef International Marine College expansion,Cairns,"16,000","1,200","14,800",N/A,-16.94922149,145.7699155
"Employment, Small Business and Training","Department of Employment, Small Business and Training","Property, Plant and Equipment",TAFE Technology Fund,,,Thursday Island health hub,Queensland - Outback,"3,500","1,000","2,500",N/A,,
"Employment, Small Business and Training","Department of Employment, Small Business and Training",Capital Grant,,,,Central Queensland University Rockhampton Campus Consolidation and Training Centre,Central Queensland,"8,400","5,925","2,475",N/A,-23.384073,150.498411
"Employment, Small Business and Training",TAFE Queensland,"Property, Plant and Equipment","Training and operational equipment acquisition, replacement and modernisation",,,Rolling replacement program,"Brisbane - East,Brisbane - North,Brisbane - South,Brisbane - West,Brisbane Inner City,Ipswich,Logan - Beaudesert,Moreton Bay - North,Moreton Bay - South,Cairns,Darling Downs - Maranoa,Central Queensland,Gold Coast,Mackay - Isaac - Whitsunday,Queensland - Outback,Sunshine Coast,Toowoomba,Townsville,Wide Bay",N/A,N/A,"4,794",Ongoing,,
"Employment, Small Business and Training",TAFE Queensland,"Property, Plant and Equipment",,,,Product development,"Brisbane - East,Brisbane - North,Brisbane - South,Brisbane - West,Brisbane Inner City,Ipswich,Logan - Beaudesert,Moreton Bay - North,Moreton Bay - South,Cairns,Darling Downs - Maranoa,Central Queensland,Gold Coast,Mackay - Isaac - Whitsunday,Queensland - Outback,Sunshine Coast,Toowoomba,Townsville,Wide Bay",N/A,N/A,"5,706",Ongoing,,
"Employment, Small Business and Training",TAFE Queensland,"Property, Plant and Equipment","Training and operational equipment acquisition, replacement and modernisation",,,Modernisation and reinvigoration projects,"Brisbane - East,Brisbane - North,Brisbane - South,Brisbane - West,Brisbane Inner City,Ipswich,Logan - Beaudesert,Moreton Bay - North,Moreton Bay - South,Cairns,Darling Downs - Maranoa,Central Queensland,Gold Coast,Mackay - Isaac - Whitsunday,Queensland - Outback,Sunshine Coast,Toowoomba,Townsville,Wide Bay",N/A,N/A,"6,699",Ongoing,,
"Employment, Small Business and Training",TAFE Queensland,"Property, Plant and Equipment",,,,Aviation Australia capital program,"Brisbane - East,Brisbane - North,Brisbane - South,Brisbane - West,Brisbane Inner City,Ipswich,Logan - Beaudesert,Moreton Bay - North,Moreton Bay - South,Cairns,Darling Downs - Maranoa,Central Queensland,Gold Coast,Mackay - Isaac - Whitsunday,Queensland - Outback,Sunshine Coast,Toowoomba,Townsville,Wide Bay",N/A,N/A,500,Ongoing,,
Energy and Climate,CleanCo Queensland Limited,"Property, Plant and Equipment",Existing Plant and Offices,,,Swanbank E major overhauls,Ipswich,N/A,N/A,"21,097",Ongoing,-27.655097,152.81788
Energy and Climate,CleanCo Queensland Limited,"Property, Plant and Equipment",Existing Plant and Offices,,,Other corporate projects,Brisbane Inner City,N/A,N/A,"13,036",Ongoing,-27.46616,153.02765
Energy and Climate,CleanCo Queensland Limited,"Property, Plant and Equipment",Existing Plant and Offices,,,Wivenhoe major overhauls,Ipswich,N/A,N/A,"5,620",Ongoing,-27.3722,152.63194
Energy and Climate,CleanCo Queensland Limited,"Property, Plant and Equipment",Existing Plant and Offices,,,Koombooloomba Dam other projects,Cairns,N/A,N/A,944,Ongoing,-17.834328,145.599615
Energy and Climate,CleanCo Queensland Limited,"Property, Plant and Equipment",Existing Plant and Offices,,,Barron Gorge Hydro other projects,Cairns,N/A,N/A,"5,737",Ongoing,-16.851041,145.646905
Energy and Climate,CleanCo Queensland Limited,"Property, Plant and Equipment",Existing Plant and Offices,,,Swanbank E other projects,Ipswich,N/A,N/A,"4,911",Ongoing,-27.655097,152.81788
Energy and Climate,CleanCo Queensland Limited,"Property, Plant and Equipment",Existing Plant and Offices,,,Kareeya Hydro other projects,Cairns,N/A,N/A,"11,595",Ongoing,-17.767031,145.577869
Energy and Climate,CleanCo Queensland Limited,"Property, Plant and Equipment",Existing Plant and Offices,,,Wivenhoe other projects,Ipswich,N/A,N/A,"7,966",Ongoing,-27.3722,152.63194
Energy and Climate,CleanCo Queensland Limited,"Property, Plant and Equipment",Existing Plant and Offices,,,Kogan North Gas Fields development,Darling Downs - Maranoa,"62,416","13,951","6,934","41,531",-27.007098,150.8855446
Energy and Climate,CleanCo Queensland Limited,"Property, Plant and Equipment",New Renewables,,,Swanbank Battery Storage,Ipswich,"403,394","128,633","274,761",N/A,-27.655097,152.81788
Energy and Climate,CleanCo Queensland Limited,"Property, Plant and Equipment",New Renewables,,,Central Queensland renewable projects,Central Queensland,N/A,N/A,"91,998",Ongoing,,
Energy and Climate,CleanCo Queensland Limited,"Property, Plant and Equipment",Existing Plant and Offices,,,Brisbane Office lease,Brisbane Inner City,"7,531",N/A,"7,531",N/A,-27.4701212,153.0219925
Energy and Climate,CS Energy Limited,"Property, Plant and Equipment",,,,Kogan Creek Mine developments and refurbishment,Darling Downs - Maranoa,N/A,N/A,"1,020",Ongoing,-26.92527,150.78444
Energy and Climate,CS Energy Limited,"Property, Plant and Equipment",,,,"Callide Power Station enhancements, overhauls, refurbishment and rebuild",Central Queensland,N/A,N/A,"108,267",Ongoing,-24.34389,150.61944
Energy and Climate,CS Energy Limited,"Property, Plant and Equipment",,,,"Kogan Creek Power Station enhancements, overhauls and refurbishment",Darling Downs - Maranoa,N/A,N/A,"25,539",Ongoing,-26.91778,150.75083
Energy and Climate,CS Energy Limited,"Property, Plant and Equipment",,,,Upgrade of corporate information technology systems,Brisbane Inner City,N/A,N/A,"8,571",Ongoing,-27.4525,153.0381
Energy and Climate,CS Energy Limited,"Property, Plant and Equipment",New Renewables and Firming,,,Brigalow Hydrogen-ready Gas Peaking Plant,Darling Downs - Maranoa,"642,376","49,140","174,585","418,651",-26.91778,150.75083
Energy and Climate,CS Energy Limited,"Property, Plant and Equipment",,,,Callide energy transformational learning hub,Central Queensland,"2,500",N/A,"2,500",N/A,-24.34389,150.61944
Energy and Climate,CS Energy Limited,"Property, Plant and Equipment",New Renewables and Firming,,,Boulder Creek Wind Farm,Central Queensland,"406,901","85,914","174,341","146,647",-23.670135,150.262594
Energy and Climate,CS Energy Limited,"Property, Plant and Equipment",New Renewables and Firming,,,Lotus Creek Wind Farm,Mackay - Isaac - Whitsunday,"1,305,389",N/A,"500,000","805,389",-22.235989,149.135147
Energy and Climate,CS Energy Limited,"Property, Plant and Equipment",New Renewables and Firming,,,Greenbank Battery,Logan - Beaudesert,"325,403","194,000","131,403",N/A,-27.73185,152.95348
Energy and Climate,Department of Energy and Climate,Capital Grant,,,,Queensland Business Energy Saving and Transformation Program (QBEST),"Brisbane - East,Brisbane - North,Brisbane - South,Brisbane - West,Brisbane Inner City,Ipswich,Logan - Beaudesert,Moreton Bay - North,Moreton Bay - South,Cairns,Darling Downs - Maranoa,Central Queensland,Gold Coast,Mackay - Isaac - Whitsunday,Queensland - Outback,Sunshine Coast,Toowoomba,Townsville,Wide Bay","13,000","5,000","8,000",N/A,,
Energy and Climate,Department of Energy and Climate,Capital Grant,,,,Regional Economic Futures Fund,"Darling Downs - Maranoa,Central Queensland,Queensland - Outback,Townsville,Wide Bay,Mackay - Isaac - Whitsunday,Toowoomba","163,750",N/A,"10,000","153,750",,
Energy and Climate,Energy Queensland Limited,"Property, Plant and Equipment",System replacements,,,Network replacement - Cairns,Cairns,N/A,N/A,"111,273",Ongoing,,
Energy and Climate,Energy Queensland Limited,"Property, Plant and Equipment",System replacements,,,Network replacement - Darling Downs,Darling Downs - Maranoa,N/A,N/A,"27,818",Ongoing,,
Energy and Climate,Energy Queensland Limited,"Property, Plant and Equipment",System replacements,,,Network replacement - Central Queensland,Central Queensland,N/A,N/A,"27,818",Ongoing,,
Energy and Climate,Energy Queensland Limited,"Property, Plant and Equipment",System replacements,,,Network replacement - Mackay,Mackay - Isaac - Whitsunday,N/A,N/A,"111,273",Ongoing,,
Energy and Climate,Energy Queensland Limited,"Property, Plant and Equipment",System replacements,,,Network replacement - Outback Queensland,Queensland - Outback,N/A,N/A,"111,273",Ongoing,,
Energy and Climate,Energy Queensland Limited,"Property, Plant and Equipment",System replacements,,,Network replacement - Toowoomba,Toowoomba,N/A,N/A,"55,637",Ongoing,,
Energy and Climate,Energy Queensland Limited,"Property, Plant and Equipment",System replacements,,,Network replacement - Townsville,Townsville,N/A,N/A,"111,273",Ongoing,,
Energy and Climate,Energy Queensland Limited,"Property, Plant and Equipment",System replacements,,,Network replacement - Wide Bay - Ergon,Wide Bay,N/A,N/A,"55,637",Ongoing,,
Energy and Climate,Energy Queensland Limited,"Property, Plant and Equipment",System augmentation,,,Network augmentation - Cairns,Cairns,N/A,N/A,"24,818",Ongoing,,
Energy and Climate,Energy Queensland Limited,"Property, Plant and Equipment",System augmentation,,,Network augmentation - Darling Downs,Darling Downs - Maranoa,N/A,N/A,"6,204",Ongoing,,
Energy and Climate,Energy Queensland Limited,"Property, Plant and Equipment",System augmentation,,,Network augmentation - Central Queensland,Central Queensland,N/A,N/A,"6,204",Ongoing,,
Energy and Climate,Energy Queensland Limited,"Property, Plant and Equipment",System augmentation,,,Network augmentation - Mackay,Mackay - Isaac - Whitsunday,N/A,N/A,"24,818",Ongoing,,
Energy and Climate,Energy Queensland Limited,"Property, Plant and Equipment",System augmentation,,,Network augmentation - Outback Queensland,Queensland - Outback,N/A,N/A,"24,818",Ongoing,,
Energy and Climate,Energy Queensland Limited,"Property, Plant and Equipment",System augmentation,,,Network augmentation - Toowoomba,Toowoomba,N/A,N/A,"12,409",Ongoing,,
Energy and Climate,Energy Queensland Limited,"Property, Plant and Equipment",System augmentation,,,Network augmentation - Townsville,Townsville,N/A,N/A,"24,818",Ongoing,,
Energy and Climate,Energy Queensland Limited,"Property, Plant and Equipment",System augmentation,,,Network augmentation - Wide Bay,Wide Bay,N/A,N/A,"12,409",Ongoing,,
Energy and Climate,Energy Queensland Limited,"Property, Plant and Equipment",System augmentation,,,Cannonvale-Jubilee Pocket 66 kilovolt reinforcement,Mackay - Isaac - Whitsunday,"52,796","40,370","12,426",N/A,-20.2821885,148.689479
Energy and Climate,Energy Queensland Limited,"Property, Plant and Equipment",System replacements,,,Replace 66 kilovolt outdoor switchgear at Garbutt,Townsville,"38,250","31,853","5,042","1,355",-19.265551,146.775528
Energy and Climate,Energy Queensland Limited,"Property, Plant and Equipment",ICT,,,Digital office capital expenditure - Energy Queensland,"Brisbane Inner City,Townsville",N/A,N/A,"183,820",Ongoing,,
Energy and Climate,Energy Queensland Limited,"Property, Plant and Equipment",Non-regulated,,,Ergon Energy Retail information communications and technology ,Brisbane Inner City,N/A,N/A,"8,323",Ongoing,-27.4491,153.0432
Energy and Climate,Energy Queensland Limited,"Property, Plant and Equipment",Alternative control services,,,Customer initiated works - Sunshine Coast,Sunshine Coast,N/A,N/A,"20,037",Ongoing,,
Energy and Climate,Energy Queensland Limited,"Property, Plant and Equipment",Alternative control services,,,Customer initiated works - Ipswich,Ipswich,N/A,N/A,"6,375",Ongoing,,
Energy and Climate,Energy Queensland Limited,"Property, Plant and Equipment",Alternative control services,,,Customer initiated works  - Gold Coast,Gold Coast,N/A,N/A,"10,929",Ongoing,,
Energy and Climate,Energy Queensland Limited,"Property, Plant and Equipment",Alternative control services,,,Customer initiated works - Brisbane,"Brisbane Inner City,Brisbane - East,Brisbane - North,Brisbane - South,Brisbane - West",N/A,N/A,"50,092",Ongoing,,
Energy and Climate,Energy Queensland Limited,"Property, Plant and Equipment",System replacements,,,Network replacement - Gold Coast,Gold Coast,N/A,N/A,"40,353",Ongoing,,
Energy and Climate,Energy Queensland Limited,"Property, Plant and Equipment",System augmentation,,,Network augmentation - Brisbane,"Brisbane Inner City,Brisbane - East,Brisbane - North,Brisbane - South,Brisbane - West",N/A,N/A,"80,144",Ongoing,,
Energy and Climate,Energy Queensland Limited,"Property, Plant and Equipment",System replacements,,,Network replacement - Brisbane,"Brisbane Inner City,Brisbane - East,Brisbane - North,Brisbane - South,Brisbane - West",N/A,N/A,"138,053",Ongoing,,
Energy and Climate,Energy Queensland Limited,"Property, Plant and Equipment",System replacements,,,Network replacement - Ipswich,Ipswich,N/A,N/A,"20,963",Ongoing,,
Energy and Climate,Energy Queensland Limited,"Property, Plant and Equipment",System augmentation,,,Network augmentation - Sunshine Coast,Sunshine Coast,N/A,N/A,"30,889",Ongoing,,
Energy and Climate,Energy Queensland Limited,"Property, Plant and Equipment",System augmentation,,,Network augmentation - Ipswich,Ipswich,N/A,N/A,"11,075",Ongoing,,
Energy and Climate,Energy Queensland Limited,"Property, Plant and Equipment",System augmentation,,,Network augmentation - Gold Coast,Gold Coast,N/A,N/A,"25,758",Ongoing,,
Energy and Climate,Energy Queensland Limited,"Property, Plant and Equipment",System replacements,,,Network replacement - Sunshine Coast,Sunshine Coast,N/A,N/A,"38,417",Ongoing,,
Energy and Climate,Energy Queensland Limited,"Property, Plant and Equipment",Non-system,,,Tools and equipment  Energex,"Brisbane Inner City,Brisbane - East,Brisbane - North,Brisbane - South,Brisbane - West,Gold Coast,Ipswich,Logan - Beaudesert,Moreton Bay - North,Moreton Bay - South,Sunshine Coast",N/A,N/A,"3,565",Ongoing,,
Energy and Climate,Energy Queensland Limited,"Property, Plant and Equipment",Network connections,,,Network Connections - Gold Coast,Gold Coast,N/A,N/A,"14,925",Ongoing,,
Energy and Climate,Energy Queensland Limited,"Property, Plant and Equipment",Non-regulated,,,Metering Dynamics,Brisbane Inner City,N/A,N/A,"61,948",Ongoing,,
Energy and Climate,Energy Queensland Limited,"Property, Plant and Equipment",Network connections,,,Network Connections - Sunshine Coast,Sunshine Coast,N/A,N/A,"20,112",Ongoing,,
Energy and Climate,Energy Queensland Limited,"Property, Plant and Equipment",Network connections,,,Network Connections - Brisbane,"Brisbane Inner City,Brisbane - East,Brisbane - North,Brisbane - South,Brisbane - West",N/A,N/A,"66,675",Ongoing,,
Energy and Climate,Energy Queensland Limited,"Property, Plant and Equipment",Non-system,,,Vehicles - Energex,"Brisbane Inner City,Brisbane - East,Brisbane - North,Brisbane - South,Brisbane - West,Gold Coast,Ipswich,Logan - Beaudesert,Moreton Bay - North,Moreton Bay - South,Sunshine Coast",N/A,N/A,"53,123",Ongoing,,
Energy and Climate,Energy Queensland Limited,"Property, Plant and Equipment",Non-regulated,,,Other isolated systems capital work,"Queensland - Outback,Townsville",N/A,N/A,"55,229",Ongoing,,
Energy and Climate,Energy Queensland Limited,"Property, Plant and Equipment",System replacements,,,Network replacement - Wide Bay - Energex ,Wide Bay,N/A,N/A,"4,285",Ongoing,,
Energy and Climate,Energy Queensland Limited,"Property, Plant and Equipment",Alternative control services,,,Customer initiated works - Ergon Energy,"Cairns,Central Queensland,Darling Downs - Maranoa,Mackay - Isaac - Whitsunday,Queensland - Outback,Toowoomba,Townsville,Wide Bay",N/A,N/A,"76,496",Ongoing,,
Energy and Climate,Energy Queensland Limited,"Property, Plant and Equipment",Non-system,,,Tools and equipment - Ergon Energy,"Cairns,Central Queensland,Darling Downs - Maranoa,Mackay - Isaac - Whitsunday,Queensland - Outback,Toowoomba,Townsville,Wide Bay",N/A,N/A,"9,304",Ongoing,,
Energy and Climate,Energy Queensland Limited,"Property, Plant and Equipment",Network connections,,,Network Connections - Ipswich,Ipswich,N/A,N/A,"7,951",Ongoing,,
Energy and Climate,Energy Queensland Limited,"Property, Plant and Equipment",System replacements,,,Emerald Comet Substation upgrade,Central Queensland,"6,730","4,003","1,218","1,508",-23.536435,148.15124
Energy and Climate,Energy Queensland Limited,"Property, Plant and Equipment",Network connections,,,Network Connections - Ergon Energy,"Cairns,Central Queensland,Darling Downs - Maranoa,Mackay - Isaac - Whitsunday,Queensland - Outback,Toowoomba,Townsville,Wide Bay",N/A,N/A,"126,217",Ongoing,,
Energy and Climate,Energy Queensland Limited,"Property, Plant and Equipment",Non-system,,,Vehicles - Ergon Energy,"Cairns,Central Queensland,Darling Downs - Maranoa,Mackay - Isaac - Whitsunday,Queensland - Outback,Toowoomba,Townsville,Wide Bay",N/A,N/A,"86,675",Ongoing,,
Energy and Climate,Energy Queensland Limited,"Property, Plant and Equipment",Alternative control services,,,Customer initiated works - Wide Bay,Wide Bay,N/A,N/A,"3,643",Ongoing,,
Energy and Climate,Energy Queensland Limited,"Property, Plant and Equipment",Non-regulated,,,"Yurika infrastructure services - build, own, operate and maintain","Brisbane - East,Brisbane - North,Brisbane - South,Brisbane - West,Brisbane Inner City,Ipswich,Logan - Beaudesert,Moreton Bay - North,Moreton Bay - South,Cairns,Darling Downs - Maranoa,Central Queensland,Gold Coast,Mackay - Isaac - Whitsunday,Queensland - Outback,Sunshine Coast,Toowoomba,Townsville,Wide Bay",N/A,N/A,"7,001",Ongoing,,
Energy and Climate,Energy Queensland Limited,"Property, Plant and Equipment",Non-system,,,Ergon Energy Cairns operational depot redevelopment,Cairns,"51,151","34,823","16,328",N/A,,
Energy and Climate,Energy Queensland Limited,"Property, Plant and Equipment",Non-system,,,Property program - Ergon funded ,"Cairns,Central Queensland,Darling Downs - Maranoa,Mackay - Isaac - Whitsunday,Queensland - Outback,Toowoomba,Townsville,Wide Bay",N/A,N/A,"30,276",Ongoing,,
Energy and Climate,Energy Queensland Limited,"Property, Plant and Equipment",Non-system,,,Property and buildings program - Energex funded ,"Brisbane - East,Brisbane Inner City,Brisbane - North,Brisbane - South,Brisbane - West,Gold Coast,Ipswich,Logan - Beaudesert,Moreton Bay - North,Moreton Bay - South,Sunshine Coast",N/A,N/A,"60,329",Ongoing,,
Energy and Climate,Energy Queensland Limited,"Property, Plant and Equipment",System replacements,,,Childers - Gayndah - line rebuild,Wide Bay,"82,390","60,894","21,496",N/A,,
Energy and Climate,Energy Queensland Limited,"Property, Plant and Equipment",System replacements,,,Kilkivan Substation Replacement,Wide Bay,"35,128","25,240","3,435","6,453",-26.081211,152.25852
Energy and Climate,Energy Queensland Limited,"Property, Plant and Equipment",System replacements,,,"Mossman Substation, transmission plant and sections of timber feeder replacement",Cairns,"45,498","20,452","15,319","9,726",-16.50485,145.395493
Energy and Climate,Energy Queensland Limited,"Property, Plant and Equipment",System replacements,,,East Bundaberg Substation refurbishment,Wide Bay,"22,591","7,772","2,470","12,349",-24.865856,152.388103
Energy and Climate,Energy Queensland Limited,"Property, Plant and Equipment",System replacements,,,West Toowoomba 11 kilovolt Plant Replacement,Toowoomba,"19,192","14,744","2,242","2,206",-27.556142,151.929118
Energy and Climate,Energy Queensland Limited,"Property, Plant and Equipment",System replacements,,,Establish new Kleinton Substation,Toowoomba,"16,092","1,093","2,127","12,872",-27.432124,151.93836
Energy and Climate,Energy Queensland Limited,"Property, Plant and Equipment",System replacements,,,Rockhampton Glenmore Substation Refurbishment,Central Queensland,"10,158",876,853,"8,428",-23.366207,150.508558
Energy and Climate,Energy Queensland Limited,"Property, Plant and Equipment",System replacements,,,Establish 33 kilovolt feeder (Kilcoy to Woodford),Moreton Bay - North,"26,523","17,021","1,838","7,664",,
Energy and Climate,Energy Queensland Limited,"Property, Plant and Equipment",System replacements,,,Replace 11 kilovolt switchgear Nudgee Substation,Brisbane - North,"14,899","10,913","1,473","2,512",-27.389738,153.082941
Energy and Climate,Energy Queensland Limited,"Property, Plant and Equipment",System replacements,,,Rebuild Maleny Substation,Sunshine Coast,"16,424","5,478","3,270","7,677",-26.761644,152.855795
Energy and Climate,Energy Queensland Limited,"Property, Plant and Equipment",System replacements,,,Establish new Mount Crosby East Substation,Ipswich,"22,290","9,776","5,408","7,106",-27.53723,152.801329
Energy and Climate,Energy Queensland Limited,"Property, Plant and Equipment",System replacements,,,Rebuild Rosewood Substation,Ipswich,"12,986","1,763","3,546","7,677",,
Energy and Climate,Energy Queensland Limited,"Property, Plant and Equipment",System replacements,,,Rebuild Pialba Substation,Wide Bay,"22,591","12,409","3,801","6,382",,
Energy and Climate,Energy Queensland Limited,"Property, Plant and Equipment",System replacements,,,Barcaldine Substation Refurbishment,Queensland - Outback,"12,590","7,608","4,517",465,,
Energy and Climate,Energy Queensland Limited,"Property, Plant and Equipment",Non-system,,,Rocklea depot & training facility redevelopment,Brisbane - South,"38,928","6,100","25,447","7,380",,
Energy and Climate,Energy Queensland Limited,"Property, Plant and Equipment",Non-regulated,,,Barcaldine Power Station Upgrade,Queensland - Outback,"75,396","8,652","44,483","22,261",,
Energy and Climate,Energy Queensland Limited,"Property, Plant and Equipment",Non-regulated,,,Isolated Communities Decarbonisation,Queensland - Outback,N/A,N/A,"54,794",Ongoing,,
Energy and Climate,Energy Queensland Limited,"Property, Plant and Equipment",Non-regulated,,,Network Battery Plan,"Central Queensland,Logan - Beaudesert,Wide Bay,Mackay - Isaac - Whitsunday,Gold Coast,Ipswich,Toowoomba,Townsville,Sunshine Coast",N/A,N/A,"254,663",Ongoing,,
Energy and Climate,Energy Queensland Limited,"Property, Plant and Equipment",System augmentation,,,Microgrid Pilot Projects,Cairns,N/A,N/A,"4,280",Ongoing,,
Energy and Climate,Energy Queensland Limited,"Property, Plant and Equipment",System replacements,,,Stradbroke Island Transformer Replacement,Brisbane - East,"12,994","7,233","1,540","4,221",-27.518149,153.4885854
Energy and Climate,Energy Queensland Limited,"Property, Plant and Equipment",System replacements,,,Tarampa Substation Upgrade,Ipswich,"12,105","1,807","1,381","8,917",-27.479141,152.5489783
Energy and Climate,Energy Queensland Limited,"Property, Plant and Equipment",System augmentation,,,Establish 33/11 kilovolt Zone Substation at Petrie,Moreton Bay - South,"22,744","2,388","5,531","14,825",,
Energy and Climate,Energy Queensland Limited,"Property, Plant and Equipment",System replacements,,,Replace circuit breakers at Lindum Substation,Brisbane - East,"13,511","1,019","1,238","11,254",,
Energy and Climate,Energy Queensland Limited,"Property, Plant and Equipment",System replacements,,,Biloela Substation Refurbishment,Central Queensland,"18,090","1,724","2,942","13,425",-24.40158,150.508117
Energy and Climate,Energy Queensland Limited,"Property, Plant and Equipment",System replacements,,,Cape River Substation Replacement,Townsville,"15,000","3,269","5,363","6,369",-20.47533,145.466217
Energy and Climate,Energy Queensland Limited,"Property, Plant and Equipment",System replacements,,,Rockhampton South Substation Refurbishment,Central Queensland,"13,800","1,811","2,781","9,208",-23.3838,150.513168
Energy and Climate,Energy Queensland Limited,"Property, Plant and Equipment",System replacements,,,Telco Ethernet Replacement Parcel 2,"Brisbane - East,Brisbane - North,Brisbane - South,Brisbane - West,Brisbane Inner City,Ipswich,Logan - Beaudesert,Moreton Bay - North,Moreton Bay - South,Cairns,Darling Downs - Maranoa,Central Queensland,Gold Coast,Mackay - Isaac - Whitsunday,Queensland - Outback,Sunshine Coast,Toowoomba,Townsville,Wide Bay","13,205","1,402","5,327","6,476",,
Energy and Climate,Energy Queensland Limited,"Property, Plant and Equipment",System augmentation,,,Bells Creek Central - Establish 132/11 kilovolt Zone Substation,Sunshine Coast,"109,755","6,705","53,008","50,041",,
Energy and Climate,Energy Queensland Limited,"Property, Plant and Equipment",System replacements,,,Caboolture Zone Substation Refurbishment,Moreton Bay - North,"14,018",148,"1,928","11,942",,
Energy and Climate,Energy Queensland Limited,"Property, Plant and Equipment",Non-regulated,,,Local Renewable Energy Zone pilot,Townsville,N/A,N/A,"10,000",Ongoing,,
Energy and Climate,Powerlink Queensland,"Property, Plant and Equipment",,,,Gladstone South secondary systems replacement,Central Queensland,"20,800","12,771","3,300","4,729",-23.88478,151.27427
Energy and Climate,Powerlink Queensland,"Property, Plant and Equipment",,,,Ross 275 kilovolt primary plant replacement,Townsville,"28,800","19,970","4,800","4,030",-19.404129,146.726466
Energy and Climate,Powerlink Queensland,"Property, Plant and Equipment",,,,Advanced energy management system replacement,Brisbane - North,"234,000","85,020","40,800","108,180",-27.385146,153.067148
Energy and Climate,Powerlink Queensland,"Property, Plant and Equipment",,,,Lilyvale selected primary plant replacement,Central Queensland,"39,800","15,522","8,900","15,378",-23.12941,148.42809
Energy and Climate,Powerlink Queensland,"Property, Plant and Equipment",,,,Dense Wave Division Multiplexing Network replacement,"Brisbane - East,Brisbane - North,Brisbane - South,Brisbane - West,Brisbane Inner City,Ipswich,Logan - Beaudesert,Moreton Bay - North,Moreton Bay - South,Cairns,Darling Downs - Maranoa,Central Queensland,Gold Coast,Mackay - Isaac - Whitsunday,Queensland - Outback,Sunshine Coast,Toowoomba,Townsville,Wide Bay","35,000","30,418","1,200","3,382",,
Energy and Climate,Powerlink Queensland,"Property, Plant and Equipment",,,,Davies Creek to Bayview Heights 275 kilovolt refit,Cairns,"70,000","28,952","14,200","26,848",,
Energy and Climate,Powerlink Queensland,"Property, Plant and Equipment",,,,Gladstone Transmission Training Hub,Central Queensland,"90,000","7,047","20,000","62,953",-23.8622,151.22299
Energy and Climate,Powerlink Queensland,"Property, Plant and Equipment",,,,CopperString 2032,"Townsville,Queensland - Outback","5,000,000","264,089","712,000","4,023,911",,
Energy and Climate,Powerlink Queensland,"Property, Plant and Equipment",,,,SuperGrid Stage 1: Halys-Woolooga Easement Acquisition,Wide Bay,"193,222","8,284","64,300","120,637",,
Energy and Climate,Powerlink Queensland,"Property, Plant and Equipment",,,,Calvale to Calliope River 275 kilovolt Transmission Line,Central Queensland,"464,373","1,830","4,800","457,743",,
Energy and Climate,Powerlink Queensland,"Property, Plant and Equipment",,,,SuperGrid Stage 1: Halys to Borumba Transmission Line,Wide Bay,"592,560","12,000","36,900","543,660",,
Energy and Climate,Powerlink Queensland,"Property, Plant and Equipment",,,,SuperGrid Stage 1: Borumba Pumped Hydro Energy Storage Connection,Wide Bay,"147,645",250,"4,100","143,295",-26.5532,152.51643
Energy and Climate,Powerlink Queensland,"Property, Plant and Equipment",,,,SuperGrid Stage 1: Borumba to Woolooga Transmission Line,Wide Bay,"681,680","6,000","4,100","671,580",,
Energy and Climate,Powerlink Queensland,"Property, Plant and Equipment",,,,Total Non Prescribed Transmission Network Connections,"Brisbane - East,Brisbane - North,Brisbane - South,Brisbane - West,Brisbane Inner City,Ipswich,Logan - Beaudesert,Moreton Bay - North,Moreton Bay - South,Cairns,Darling Downs - Maranoa,Central Queensland,Gold Coast,Mackay - Isaac - Whitsunday,Queensland - Outback,Sunshine Coast,Toowoomba,Townsville,Wide Bay",N/A,N/A,"212,370",Ongoing,,
Energy and Climate,Powerlink Queensland,"Property, Plant and Equipment",,,,Total Other Projects,"Brisbane - East,Brisbane - North,Brisbane - South,Brisbane - West,Brisbane Inner City,Ipswich,Logan - Beaudesert,Moreton Bay - North,Moreton Bay - South,Cairns,Darling Downs - Maranoa,Central Queensland,Gold Coast,Mackay - Isaac - Whitsunday,Queensland - Outback,Sunshine Coast,Toowoomba,Townsville,Wide Bay","749,729",N/A,"749,729",N/A,,
Energy and Climate,Queensland Hydro Pty Ltd,"Property, Plant and Equipment",,,,Borumba Pumped Hydro Energy Storage,Wide Bay,"14,159,006","95,563","935,900","13,127,543",-26.50650397,152.5833615
Energy and Climate,Queensland Hydro Pty Ltd,"Property, Plant and Equipment",,,,Pioneer-Burdekin Early Works,Mackay - Isaac - Whitsunday,N/A,N/A,"38,450",Ongoing,,
Energy and Climate,Stanwell Corporation Limited,"Property, Plant and Equipment",,,,Other capital projects,"Brisbane Inner City,Central Queensland,Wide Bay",N/A,N/A,"2,585",Ongoing,,
Energy and Climate,Stanwell Corporation Limited,"Property, Plant and Equipment",,,,Meandu Mine - Development Program,Wide Bay,N/A,N/A,"3,241",Ongoing,-26.804883,151.896908
Energy and Climate,Stanwell Corporation Limited,"Property, Plant and Equipment",,,,Meandu Mine - minor works,Wide Bay,N/A,N/A,"45,377",Ongoing,-26.804883,151.896908
Energy and Climate,Stanwell Corporation Limited,"Property, Plant and Equipment",,,,Stanwell Power Station - Overhauls,Central Queensland,N/A,N/A,"31,371",Ongoing,-23.50932,150.319284
Energy and Climate,Stanwell Corporation Limited,"Property, Plant and Equipment",,,,ICT - Hardware and Software Upgrades,Brisbane Inner City,N/A,N/A,"11,590",Ongoing,-27.466885,153.024537
Energy and Climate,Stanwell Corporation Limited,"Property, Plant and Equipment",,,,Tarong Power Station - Overhauls,Wide Bay,N/A,N/A,"75,716",Ongoing,-26.782564,151.915351
Energy and Climate,Stanwell Corporation Limited,"Property, Plant and Equipment",New Renewables and Firming,,,Wambo Wind Farm Stage 1,Darling Downs - Maranoa,"488,728","312,047","126,807","49,875",-26.54611111,151.2020278
Energy and Climate,Stanwell Corporation Limited,"Property, Plant and Equipment",New Renewables and Firming,,,Southern Renewable Energy Zone Battery,Wide Bay,"514,107","359,693","116,419","37,995",-26.782564,151.915351
Energy and Climate,Stanwell Corporation Limited,"Property, Plant and Equipment",,,,Stanwell Power Station - Other Sustaining Projects,Central Queensland,N/A,N/A,"21,540",Ongoing,-23.50932,150.319284
Energy and Climate,Stanwell Corporation Limited,"Property, Plant and Equipment",,,,Tarong Power Station - Other Sustaining Projects,Wide Bay,N/A,N/A,"55,635",Ongoing,-26.782564,151.915351
Energy and Climate,Stanwell Corporation Limited,"Property, Plant and Equipment",New Renewables and Firming,,,Tarong West Wind Farm,Wide Bay,N/A,N/A,"424,020",Ongoing,-26.782564,151.915351
Energy and Climate,Stanwell Corporation Limited,"Property, Plant and Equipment",New Renewables and Firming,,,Central Renewable Energy Zone Battery,Central Queensland,"746,932","74,345","369,944","302,643",-23.50932,150.319284
Energy and Climate,Stanwell Corporation Limited,"Property, Plant and Equipment",,,,Service and Maintenance for Renewable Projects,"Central Queensland,Wide Bay",N/A,N/A,"2,875",Ongoing,,
Energy and Climate,Stanwell Corporation Limited,"Property, Plant and Equipment",,,,Tarong Power Station - Cooling Tower Refurbishment,Wide Bay,"8,042","7,957",85,N/A,-26.782564,151.915351
Energy and Climate,Stanwell Corporation Limited,"Property, Plant and Equipment",,,,Meandu Mine - Dragline Overhaul,Wide Bay,N/A,N/A,"1,467",Ongoing,-26.804883,151.896908
Energy and Climate,Stanwell Corporation Limited,"Property, Plant and Equipment",,,,Meandu Mine - Ash Management,Wide Bay,N/A,N/A,100,Ongoing,-26.804883,151.896908
Energy and Climate,Stanwell Corporation Limited,"Property, Plant and Equipment",New Renewables and Firming,,,Wambo Wind Farm Stage 2,Darling Downs - Maranoa,"462,206","129,173","249,867","83,165",-26.54611111,151.2020278
Energy and Climate,Stanwell Corporation Limited,"Property, Plant and Equipment",,,,Future Energy and Innovation Training Hub,Central Queensland,N/A,N/A,"29,747",Ongoing,-23.50932,150.319284
"Environment, Science and Innovation","Department of Environment, Science and Innovation","Property, Plant and Equipment",,,,General systems development,"Brisbane - East,Brisbane - North,Brisbane - South,Brisbane - West,Brisbane Inner City,Ipswich,Logan - Beaudesert,Moreton Bay - North,Moreton Bay - South,Cairns,Darling Downs - Maranoa,Central Queensland,Gold Coast,Mackay - Isaac - Whitsunday,Queensland - Outback,Sunshine Coast,Toowoomba,Townsville,Wide Bay",N/A,N/A,"6,093",Ongoing,,
"Environment, Science and Innovation","Department of Environment, Science and Innovation","Property, Plant and Equipment",Buildings and Infrastructure,,,Magnetic Island National Park trails network,Townsville,"1,437",850,587,N/A,-19.136589,146.8331
"Environment, Science and Innovation","Department of Environment, Science and Innovation","Property, Plant and Equipment",Buildings and Infrastructure,,,Crater Lakes National Park visitor facilities upgrade,Cairns,"10,316",832,400,"9,084",-17.252101,145.639134
"Environment, Science and Innovation","Department of Environment, Science and Innovation","Property, Plant and Equipment",Buildings and Infrastructure,,,Whitsunday Islands National Park - Ngaro track,Mackay - Isaac - Whitsunday,"6,301","2,801","3,500",N/A,-20.306446,149.017932
"Environment, Science and Innovation","Department of Environment, Science and Innovation","Property, Plant and Equipment",Plant and equipment,,,General plant and equipment,"Brisbane - East,Brisbane - North,Brisbane - South,Brisbane - West,Brisbane Inner City,Ipswich,Logan - Beaudesert,Moreton Bay - North,Moreton Bay - South,Cairns,Darling Downs - Maranoa,Central Queensland,Gold Coast,Mackay - Isaac - Whitsunday,Queensland - Outback,Sunshine Coast,Toowoomba,Townsville,Wide Bay",N/A,N/A,"7,534",Ongoing,,
"Environment, Science and Innovation","Department of Environment, Science and Innovation","Property, Plant and Equipment",Buildings and Infrastructure,,,Springbrook National Park visitor facilities upgrade,Gold Coast,"16,440","1,380",850,"14,210",-28.17599,153.2792
"Environment, Science and Innovation","Department of Environment, Science and Innovation","Property, Plant and Equipment",Plant and equipment,,,Queensland Reef Water Quality monitoring equipment,"Brisbane - East,Brisbane - North,Brisbane - South,Brisbane - West,Brisbane Inner City,Ipswich,Logan - Beaudesert,Moreton Bay - North,Moreton Bay - South,Cairns,Darling Downs - Maranoa,Central Queensland,Gold Coast,Mackay - Isaac - Whitsunday,Queensland - Outback,Sunshine Coast,Toowoomba,Townsville,Wide Bay","1,412","1,308",104,N/A,,
"Environment, Science and Innovation","Department of Environment, Science and Innovation","Property, Plant and Equipment",Buildings and Infrastructure,,,Hinchinbrook Island National Park - Thorsborne trail and visitor facilities upgrade,Cairns,"3,200","1,378","1,822",N/A,,
"Environment, Science and Innovation","Department of Environment, Science and Innovation","Property, Plant and Equipment",Buildings and Infrastructure,,,David Fleay Wildlife Park Nocturnal House,Gold Coast,"2,600",300,"1,000","1,300",-28.10836,153.44545
"Environment, Science and Innovation","Department of Environment, Science and Innovation","Property, Plant and Equipment",Buildings and Infrastructure,,,Girraween National Park Information Hub,Darling Downs - Maranoa,"7,857",657,"5,000","2,200",-28.848252,151.96336
"Environment, Science and Innovation","Department of Environment, Science and Innovation","Property, Plant and Equipment",Buildings and Infrastructure,,,Quandamooka Country,"Brisbane - East,Moreton Bay - North",N/A,N/A,"3,242",Ongoing,,
"Environment, Science and Innovation","Department of Environment, Science and Innovation","Property, Plant and Equipment",Buildings and Infrastructure,,,Daintree National Park (Cape York Peninsula Aboriginal Land) - Culture and Tourism Hub,Cairns,"3,446",646,920,"1,880",,
"Environment, Science and Innovation","Department of Environment, Science and Innovation","Property, Plant and Equipment",Land,,,Cape York Peninsula Tenure Resolution Program - land acquisitions,Queensland - Outback,"20,000",N/A,"20,000",N/A,,
"Environment, Science and Innovation","Department of Environment, Science and Innovation","Property, Plant and Equipment",Plant and equipment,,,Vessel replacement program,"Brisbane - East,Brisbane - North,Brisbane - South,Brisbane - West,Brisbane Inner City,Ipswich,Logan - Beaudesert,Moreton Bay - North,Moreton Bay - South,Cairns,Darling Downs - Maranoa,Central Queensland,Gold Coast,Mackay - Isaac - Whitsunday,Queensland - Outback,Sunshine Coast,Toowoomba,Townsville,Wide Bay","11,749","2,930","4,769","4,050",,
"Environment, Science and Innovation","Department of Environment, Science and Innovation","Property, Plant and Equipment",Buildings and Infrastructure,,,K'gari - Central Station area upgrade,Wide Bay,"11,096","3,946","4,220","2,930",-25.473724,153.055275
"Environment, Science and Innovation","Department of Environment, Science and Innovation","Property, Plant and Equipment",Buildings and Infrastructure,,,Noosa National Park - Coastal walk upgrades,Sunshine Coast,"1,150",50,"1,100",N/A,-26.37783,153.117413
"Environment, Science and Innovation","Department of Environment, Science and Innovation","Property, Plant and Equipment",Buildings and Infrastructure,,,Daintree National Park (Cape York Peninsula Aboriginal Land) - Jindalba boardwalk,Cairns,"7,340","1,340","1,550","4,450",-16.2378169,145.4285452
"Environment, Science and Innovation","Department of Environment, Science and Innovation","Property, Plant and Equipment",Buildings and Infrastructure,,,K'gari - Dingo (wongari) management program,Wide Bay,"14,650","2,325","7,500","4,825",,
"Environment, Science and Innovation","Department of Environment, Science and Innovation","Property, Plant and Equipment",Buildings and Infrastructure,,,Girringun National Park - Wallaman Falls visitor facilities upgrade,Townsville,"4,175",380,450,"3,345",-18.597734,145.804333
"Environment, Science and Innovation","Department of Environment, Science and Innovation","Property, Plant and Equipment",Plant and equipment,,,Better Queensland Parks - Fire Management Uplift Program,"Brisbane - East,Brisbane - North,Brisbane - South,Brisbane - West,Brisbane Inner City,Ipswich,Logan - Beaudesert,Moreton Bay - North,Moreton Bay - South,Cairns,Darling Downs - Maranoa,Central Queensland,Gold Coast,Mackay - Isaac - Whitsunday,Queensland - Outback,Sunshine Coast,Toowoomba,Townsville,Wide Bay","15,402",,"15,402",,,
"Environment, Science and Innovation","Department of Environment, Science and Innovation","Property, Plant and Equipment",Buildings and Infrastructure,,,Better Queensland Parks - Fire Management Uplift Program,"Brisbane - East,Brisbane - North,Brisbane - South,Brisbane - West,Brisbane Inner City,Ipswich,Logan - Beaudesert,Moreton Bay - North,Moreton Bay - South,Cairns,Darling Downs - Maranoa,Central Queensland,Gold Coast,Mackay - Isaac - Whitsunday,Queensland - Outback,Sunshine Coast,Toowoomba,Townsville,Wide Bay","2,716",,"2,716",,,
"Environment, Science and Innovation","Department of Environment, Science and Innovation","Property, Plant and Equipment",Buildings and Infrastructure,,,Parks and forests - other management facilities,"Brisbane - East,Brisbane - North,Brisbane - South,Brisbane - West,Brisbane Inner City,Ipswich,Logan - Beaudesert,Moreton Bay - North,Moreton Bay - South,Cairns,Darling Downs - Maranoa,Central Queensland,Gold Coast,Mackay - Isaac - Whitsunday,Queensland - Outback,Sunshine Coast,Toowoomba,Townsville,Wide Bay",N/A,N/A,"7,088",Ongoing,,
"Environment, Science and Innovation","Department of Environment, Science and Innovation","Property, Plant and Equipment",Buildings and Infrastructure,,,Parks and forests - other recreation and visitor facilities,"Brisbane - East,Brisbane - North,Brisbane - South,Brisbane - West,Brisbane Inner City,Ipswich,Logan - Beaudesert,Moreton Bay - North,Moreton Bay - South,Cairns,Darling Downs - Maranoa,Central Queensland,Gold Coast,Mackay - Isaac - Whitsunday,Queensland - Outback,Sunshine Coast,Toowoomba,Townsville,Wide Bay",N/A,N/A,"6,334",Ongoing,,
"Environment, Science and Innovation","Department of Environment, Science and Innovation",Capital Grant,,,,Waste and Recycling program,"Brisbane - East,Brisbane - North,Brisbane - South,Brisbane - West,Brisbane Inner City,Ipswich,Logan - Beaudesert,Moreton Bay - North,Moreton Bay - South,Cairns,Darling Downs - Maranoa,Central Queensland,Gold Coast,Mackay - Isaac - Whitsunday,Queensland - Outback,Sunshine Coast,Toowoomba,Townsville,Wide Bay",N/A,N/A,"2,925",Ongoing,,
"Environment, Science and Innovation","Department of Environment, Science and Innovation",Capital Grant,,,,SEQ City Deal - Blue Heart Sunshine Coast,Sunshine Coast,"20,000","10,000","10,000",,,
"Environment, Science and Innovation","Department of Environment, Science and Innovation",Capital Grant,,,,SEQ City Deal - Resilient Rivers Initiative,"Brisbane - East,Brisbane - North,Brisbane - South,Brisbane - West,Brisbane Inner City,Ipswich,Logan - Beaudesert,Moreton Bay - North,Moreton Bay - South,Cairns,Darling Downs - Maranoa,Central Queensland,Gold Coast,Mackay - Isaac - Whitsunday,Queensland - Outback,Sunshine Coast,Toowoomba,Townsville,Wide Bay","20,000","3,000","5,500","11,500",,
"Environment, Science and Innovation","Department of Environment, Science and Innovation",Capital Grant,,,,SEQ City Deal - Resource Recovery Infrastructure,"Brisbane - East,Brisbane - North,Brisbane - South,Brisbane - West,Brisbane Inner City,Ipswich,Logan - Beaudesert,Moreton Bay - North,Moreton Bay - South,Cairns,Darling Downs - Maranoa,Central Queensland,Gold Coast,Mackay - Isaac - Whitsunday,Queensland - Outback,Sunshine Coast,Toowoomba,Townsville,Wide Bay","70,000",N/A,"33,500","36,500",,
"Housing, Local Government, Planning and Public Works","Department of Housing, Local Government, Planning and Public Works","Property, Plant and Equipment",Public Works,,,"Other property, plant and equipment","Brisbane - East,Brisbane - North,Brisbane - South,Brisbane - West,Brisbane Inner City,Ipswich,Logan - Beaudesert,Moreton Bay - North,Moreton Bay - South,Cairns,Darling Downs - Maranoa,Central Queensland,Gold Coast,Mackay - Isaac - Whitsunday,Queensland - Outback,Sunshine Coast,Toowoomba,Townsville,Wide Bay",N/A,N/A,"9,480",Ongoing,,
"Housing, Local Government, Planning and Public Works","Department of Housing, Local Government, Planning and Public Works","Property, Plant and Equipment",Public Works,,,Building works and capital replacements,"Brisbane - East,Brisbane - North,Brisbane - South,Brisbane - West,Brisbane Inner City,Ipswich,Logan - Beaudesert,Moreton Bay - North,Moreton Bay - South,Cairns,Darling Downs - Maranoa,Central Queensland,Gold Coast,Mackay - Isaac - Whitsunday,Queensland - Outback,Sunshine Coast,Toowoomba,Townsville,Wide Bay",N/A,N/A,500,Ongoing,,
"Housing, Local Government, Planning and Public Works","Department of Housing, Local Government, Planning and Public Works","Property, Plant and Equipment",Public Works,,,Office Accommodation Program,"Brisbane - East,Brisbane - North,Brisbane - South,Brisbane - West,Brisbane Inner City,Ipswich,Logan - Beaudesert,Moreton Bay - North,Moreton Bay - South,Cairns,Darling Downs - Maranoa,Central Queensland,Gold Coast,Mackay - Isaac - Whitsunday,Queensland - Outback,Sunshine Coast,Toowoomba,Townsville,Wide Bay",N/A,N/A,"7,778",Ongoing,,
"Housing, Local Government, Planning and Public Works","Department of Housing, Local Government, Planning and Public Works","Property, Plant and Equipment",Public Works,,,Government Employee Housing,"Brisbane - East,Brisbane - North,Brisbane - South,Brisbane - West,Brisbane Inner City,Ipswich,Logan - Beaudesert,Moreton Bay - North,Moreton Bay - South,Cairns,Darling Downs - Maranoa,Central Queensland,Gold Coast,Mackay - Isaac - Whitsunday,Queensland - Outback,Sunshine Coast,Toowoomba,Townsville,Wide Bay",N/A,N/A,"162,904",Ongoing,,
"Housing, Local Government, Planning and Public Works","Department of Housing, Local Government, Planning and Public Works","Property, Plant and Equipment",Public Works,,,Government Buildings ZEV ready,"Brisbane - East,Brisbane - North,Brisbane - South,Brisbane - West,Brisbane Inner City,Ipswich,Logan - Beaudesert,Moreton Bay - North,Moreton Bay - South,Cairns,Darling Downs - Maranoa,Central Queensland,Gold Coast,Mackay - Isaac - Whitsunday,Queensland - Outback,Sunshine Coast,Toowoomba,Townsville,Wide Bay","28,100","2,000","15,750","10,350",,
"Housing, Local Government, Planning and Public Works","Department of Housing, Local Government, Planning and Public Works","Property, Plant and Equipment",Public Works,,,Regional Infrastructure Upgrades,"Brisbane - East,Brisbane - North,Brisbane - South,Brisbane - West,Brisbane Inner City,Ipswich,Logan - Beaudesert,Moreton Bay - North,Moreton Bay - South,Cairns,Darling Downs - Maranoa,Central Queensland,Gold Coast,Mackay - Isaac - Whitsunday,Queensland - Outback,Sunshine Coast,Toowoomba,Townsville,Wide Bay","22,497","3,659","10,180","8,658",,
"Housing, Local Government, Planning and Public Works","Department of Housing, Local Government, Planning and Public Works","Property, Plant and Equipment",Public Works,,,Thomas Dixon Centre refurbishment,Brisbane Inner City,"96,407","91,130","5,277",N/A,-27.486245,153.001801
"Housing, Local Government, Planning and Public Works","Department of Housing, Local Government, Planning and Public Works","Property, Plant and Equipment",Public Works,,,Bundaberg East Levee,Wide Bay,"114,000","2,555","17,108","94,337",-24.85,152.350006
"Housing, Local Government, Planning and Public Works","Department of Housing, Local Government, Planning and Public Works","Property, Plant and Equipment",Housing and Homelessness Services,Construct social housing,,Brisbane - East,Brisbane - East,N/A,N/A,"9,674",Ongoing,,
"Housing, Local Government, Planning and Public Works","Department of Housing, Local Government, Planning and Public Works","Property, Plant and Equipment",Housing and Homelessness Services,Construct social housing,,Brisbane - North,Brisbane - North,N/A,N/A,263,Ongoing,,
"Housing, Local Government, Planning and Public Works","Department of Housing, Local Government, Planning and Public Works","Property, Plant and Equipment",Housing and Homelessness Services,Construct social housing,,Brisbane - South,Brisbane - South,N/A,N/A,"1,164",Ongoing,,
"Housing, Local Government, Planning and Public Works","Department of Housing, Local Government, Planning and Public Works","Property, Plant and Equipment",Housing and Homelessness Services,Construct social housing,,Brisbane - West,Brisbane - West,N/A,N/A,"9,888",Ongoing,,
"Housing, Local Government, Planning and Public Works","Department of Housing, Local Government, Planning and Public Works","Property, Plant and Equipment",Housing and Homelessness Services,Construct social housing,,Brisbane Inner City,Brisbane Inner City,N/A,N/A,"27,508",Ongoing,,
"Housing, Local Government, Planning and Public Works","Department of Housing, Local Government, Planning and Public Works","Property, Plant and Equipment",Housing and Homelessness Services,Construct social housing,,Cairns,Cairns,N/A,N/A,"76,889",Ongoing,,
"Housing, Local Government, Planning and Public Works","Department of Housing, Local Government, Planning and Public Works","Property, Plant and Equipment",Housing and Homelessness Services,Construct social housing,,Darling Downs - Maranoa,Darling Downs - Maranoa,N/A,N/A,"2,919",Ongoing,,
"Housing, Local Government, Planning and Public Works","Department of Housing, Local Government, Planning and Public Works","Property, Plant and Equipment",Housing and Homelessness Services,Construct social housing,,Central Queensland,Central Queensland,N/A,N/A,"13,703",Ongoing,,
"Housing, Local Government, Planning and Public Works","Department of Housing, Local Government, Planning and Public Works","Property, Plant and Equipment",Housing and Homelessness Services,Construct social housing,,Gold Coast,Gold Coast,N/A,N/A,"24,952",Ongoing,,
"Housing, Local Government, Planning and Public Works","Department of Housing, Local Government, Planning and Public Works","Property, Plant and Equipment",Housing and Homelessness Services,Construct social housing,,Ipswich,Ipswich,N/A,N/A,"12,474",Ongoing,,
"Housing, Local Government, Planning and Public Works","Department of Housing, Local Government, Planning and Public Works","Property, Plant and Equipment",Housing and Homelessness Services,Construct social housing,,Logan - Beaudesert,Logan - Beaudesert,N/A,N/A,"19,166",Ongoing,,
"Housing, Local Government, Planning and Public Works","Department of Housing, Local Government, Planning and Public Works","Property, Plant and Equipment",Housing and Homelessness Services,Construct social housing,,Mackay,Mackay - Isaac - Whitsunday,N/A,N/A,"15,321",Ongoing,,
"Housing, Local Government, Planning and Public Works","Department of Housing, Local Government, Planning and Public Works","Property, Plant and Equipment",Housing and Homelessness Services,Construct social housing,,Moreton Bay - North,Moreton Bay - North,N/A,N/A,"17,249",Ongoing,,
"Housing, Local Government, Planning and Public Works","Department of Housing, Local Government, Planning and Public Works","Property, Plant and Equipment",Housing and Homelessness Services,Construct social housing,,Moreton Bay - South,Moreton Bay - South,N/A,N/A,"18,504",Ongoing,,
"Housing, Local Government, Planning and Public Works","Department of Housing, Local Government, Planning and Public Works","Property, Plant and Equipment",Housing and Homelessness Services,Construct social housing,,Queensland - Outback,Queensland - Outback,N/A,N/A,"27,839",Ongoing,,
"Housing, Local Government, Planning and Public Works","Department of Housing, Local Government, Planning and Public Works","Property, Plant and Equipment",Housing and Homelessness Services,Construct social housing,,Sunshine Coast,Sunshine Coast,N/A,N/A,"8,448",Ongoing,,
"Housing, Local Government, Planning and Public Works","Department of Housing, Local Government, Planning and Public Works","Property, Plant and Equipment",Housing and Homelessness Services,Construct social housing,,Toowoomba,Toowoomba,N/A,N/A,"1,902",Ongoing,,
"Housing, Local Government, Planning and Public Works","Department of Housing, Local Government, Planning and Public Works","Property, Plant and Equipment",Housing and Homelessness Services,Construct social housing,,Townsville,Townsville,N/A,N/A,"18,397",Ongoing,,
"Housing, Local Government, Planning and Public Works","Department of Housing, Local Government, Planning and Public Works","Property, Plant and Equipment",Housing and Homelessness Services,Construct social housing,,Wide Bay,Wide Bay,N/A,N/A,"7,710",Ongoing,,
"Housing, Local Government, Planning and Public Works","Department of Housing, Local Government, Planning and Public Works","Property, Plant and Equipment",Housing and Homelessness Services,Construct social housing,,Statewide,"Brisbane - East,Brisbane - North,Brisbane - South,Brisbane - West,Brisbane Inner City,Ipswich,Logan - Beaudesert,Moreton Bay - North,Moreton Bay - South,Cairns,Darling Downs - Maranoa,Central Queensland,Gold Coast,Mackay - Isaac - Whitsunday,Queensland - Outback,Sunshine Coast,Toowoomba,Townsville,Wide Bay",N/A,N/A,904,Ongoing,,
"Housing, Local Government, Planning and Public Works","Department of Housing, Local Government, Planning and Public Works","Property, Plant and Equipment",Housing and Homelessness Services,Purchase of existing properties,,Cairns,Cairns,N/A,N/A,"2,500",Ongoing,,
"Housing, Local Government, Planning and Public Works","Department of Housing, Local Government, Planning and Public Works","Property, Plant and Equipment",Housing and Homelessness Services,Upgrade existing social housing,,Brisbane - East,Brisbane - East,N/A,N/A,"3,772",Ongoing,,
"Housing, Local Government, Planning and Public Works","Department of Housing, Local Government, Planning and Public Works","Property, Plant and Equipment",Housing and Homelessness Services,Purchase of existing properties,,Statewide,"Brisbane - East,Brisbane Inner City,Brisbane - North,Brisbane - South,Brisbane - West,Cairns,Central Queensland,Darling Downs - Maranoa,Gold Coast,Ipswich,Logan - Beaudesert,Mackay - Isaac - Whitsunday,Moreton Bay - North,Moreton Bay - South,Queensland - Outback,Sunshine Coast,Toowoomba,Townsville,Wide Bay",N/A,N/A,"30,000",Ongoing,,
"Housing, Local Government, Planning and Public Works","Department of Housing, Local Government, Planning and Public Works","Property, Plant and Equipment",Housing and Homelessness Services,Upgrade existing social housing,,Brisbane - North,Brisbane - North,N/A,N/A,"4,873",Ongoing,,
"Housing, Local Government, Planning and Public Works","Department of Housing, Local Government, Planning and Public Works","Property, Plant and Equipment",Housing and Homelessness Services,Purchase of existing properties,,Townsville,Townsville,N/A,N/A,"2,500",Ongoing,,
